{
    "UGSS": {
        "icao": "UGSS",
        "name": "Sukhumi Dranda Airport",
        "city": "Sukhumi",  
        "lat": 42.8582000732,
        "lon": 41.1281013489
    },
    "OAKB": {
        "icao": "OAKB",
        "name": "Kabul International Airport",
        "city": "Kabul",
        "lat": 34.5658988953,
        "lon": 69.2123031616
    },
    "LATI": {
        "icao": "LATI",
        "name": "Tirana International Airport Mother Teresa",
        "city": "Tirana",
        "lat": 41.4146995544,
        "lon": 19.7206001282
    },
    "DAAG": {
        "icao": "DAAG",
        "name": "Houari Boumediene Airport",
        "city": "Algiers",
        "lat": 36.6910018921,
        "lon": 3.2154099941
    },
    "NSTU": {
        "icao": "NSTU",
        "name": "Pago Pago International Airport",
        "city": "Pago Pago",
        "lat": -14.3310003281,
        "lon": -170.710006714
    },
    "FNLU": {
        "icao": "FNLU",
        "name": "Quatro De Fevereiro Airport",
        "city": "Luanda",
        "lat": -8.8583698273,
        "lon": 13.2312002182
    },
    "TQPF": {
        "icao": "TQPF",
        "name": "Wallblake Airport",
        "city": "The Valley",
        "lat": 18.2047996521,
        "lon": -63.0550994873
    },
    "CYYT": {
        "icao": "CYYT",
        "name": "St. John's International Airport",
        "city": "St. John's",
        "lat": 47.618598938,
        "lon": -52.7518997192
    },
    "SABE": {
        "icao": "SABE",
        "name": "Jorge Newbery Airpark",
        "city": "Buenos Aires",
        "lat": -34.5592,
        "lon": -58.4156
    },
    "UDYZ": {
        "icao": "UDYZ",
        "name": "Zvartnots International Airport",
        "city": "Yerevan",
        "lat": 40.1473007202,
        "lon": 44.3959007263
    },
    "TNCA": {
        "icao": "TNCA",
        "name": "Queen Beatrix International Airport",
        "city": "Oranjestad",
        "lat": 12.5013999939,
        "lon": -70.0151977539
    },
    "SYCJ": {
        "icao": "SYCJ",
        "name": "Cheddi Jagan International Airport",
        "city": "Georgetown",
        "lat": 6.4985499382,
        "lon": -58.2541007996
    },
    "YSCB": {
        "icao": "YSCB",
        "name": "Canberra International Airport",
        "city": "Canberra",
        "lat": -35.3069000244,
        "lon": 149.1950073242
    },
    "LOWW": {
        "icao": "LOWW",
        "name": "Vienna International Airport",
        "city": "Vienna",
        "lat": 48.1102981567,
        "lon": 16.5697002411
    },
    "UBBB": {
        "icao": "UBBB",
        "name": "Heydar Aliyev International Airport",
        "city": "Baku",
        "lat": 40.4674987793,
        "lon": 50.0466995239
    },
    "MYNN": {
        "icao": "MYNN",
        "name": "Lynden Pindling International Airport",
        "city": "Nassau",
        "lat": 25.0389995575,
        "lon": -77.4662017822
    },
    "OBBI": {
        "icao": "OBBI",
        "name": "Bahrain International Airport",
        "city": "Manama",
        "lat": 26.2707996368,
        "lon": 50.6335983276
    },
    "VGHS": {
        "icao": "VGHS",
        "name": "Dhaka / Hazrat Shahjalal International Airport",
        "city": "Dhaka",
        "lat": 23.843347,
        "lon": 90.397783
    },
    "TBPB": {
        "icao": "TBPB",
        "name": "Sir Grantley Adams International Airport",
        "city": "Bridgetown",
        "lat": 13.0746002197,
        "lon": -59.4925003052
    },
    "UMMS": {
        "icao": "UMMS",
        "name": "Minsk International Airport",
        "city": "Minsk",
        "lat": 53.8824996948,
        "lon": 28.0307006836
    },
    "EBBR": {
        "icao": "EBBR",
        "name": "Brussels Airport",
        "city": "Brussels",
        "lat": 50.9014015198,
        "lon": 4.4844398499
    },
    "MZBZ": {
        "icao": "MZBZ",
        "name": "Philip S. W. Goldson International Airport",
        "city": "Belize City",
        "lat": 17.539100647,
        "lon": -88.3081970215
    },
    "DBBB": {
        "icao": "DBBB",
        "name": "Cadjehoun Airport",
        "city": "Cotonou",
        "lat": 6.3572301865,
        "lon": 2.3843500614
    },
    "TXKF": {
        "icao": "TXKF",
        "name": "L.F. Wade International International Airport",
        "city": "Hamilton",
        "lat": 32.3639984131,
        "lon": -64.6787033081
    },
    "VQPR": {
        "icao": "VQPR",
        "name": "Paro Airport",
        "city": "Paro",
        "lat": 27.4032001495,
        "lon": 89.4245986938
    },
    "LQSA": {
        "icao": "LQSA",
        "name": "Sarajevo International Airport",
        "city": "Sarajevo",
        "lat": 43.8246002197,
        "lon": 18.3314990997
    },
    "FBSK": {
        "icao": "FBSK",
        "name": "Sir Seretse Khama International Airport",
        "city": "Gaborone",
        "lat": -24.5552005768,
        "lon": 25.9181995392
    },
    "SBBR": {
        "icao": "SBBR",
        "name": "Presidente Juscelino Kubistschek International Airport",
        "city": "Brasilia",
        "lat": -15.8691673279,
        "lon": -47.9208335876
    },
    "TUPJ": {
        "icao": "TUPJ",
        "name": "Terrance B. Lettsome International Airport",
        "city": "Road Town",
        "lat": 18.4447994232,
        "lon": -64.5429992676
    },
    "WBSB": {
        "icao": "WBSB",
        "name": "Brunei International Airport",
        "city": "Bandar Seri Begawan",
        "lat": 4.9442000389,
        "lon": 114.9280014038
    },
    "LBSF": {
        "icao": "LBSF",
        "name": "Sofia Airport",
        "city": "Sofia",
        "lat": 42.6966934204,
        "lon": 23.4114360809
    },
    "DFFD": {
        "icao": "DFFD",
        "name": "Ouagadougou Airport",
        "city": "Ouagadougou",
        "lat": 12.3531999588,
        "lon": -1.5124200583
    },
    "HBBA": {
        "icao": "HBBA",
        "name": "Bujumbura International Airport",
        "city": "Bujumbura",
        "lat": -3.3240199089,
        "lon": 29.3185005188
    },
    "VDPP": {
        "icao": "VDPP",
        "name": "Phnom Penh International Airport",
        "city": "Phnom Penh",
        "lat": 11.5466003418,
        "lon": 104.84400177
    },
    "FKYS": {
        "icao": "FKYS",
        "name": "Yaounde Nsimalen International Airport",
        "city": "Yaounde",
        "lat": 3.7225599289,
        "lon": 11.5532999039
    },
    "CYOW": {
        "icao": "CYOW",
        "name": "Ottawa Macdonald-Cartier International Airport",
        "city": "Ottawa",
        "lat": 45.3224983215,
        "lon": -75.6691970825
    },
    "GVNP": {
        "icao": "GVNP",
        "name": "Praia International Airport",
        "city": "Praia",
        "lat": 14.9245004654,
        "lon": -23.4934997559
    },
    "MYEF": {
        "icao": "MYEF",
        "name": "Exuma International Airport",
        "city": "George Town",
        "lat": 23.5625991821,
        "lon": -75.8779983521
    },
    "FEFF": {
        "icao": "FEFF",
        "name": "Bangui M'Poko International Airport",
        "city": "Bangui",
        "lat": 4.3984799385,
        "lon": 18.5188007355
    },
    "FTTJ": {
        "icao": "FTTJ",
        "name": "N'Djamena International Airport",
        "city": "N'Djamena",
        "lat": 12.1337003708,
        "lon": 15.0340003967
    },
    "SCEL": {
        "icao": "SCEL",
        "name": "Comodoro Arturo Merino Benitez International Airport",
        "city": "Santiago",
        "lat": -33.3930015564,
        "lon": -70.7857971191
    },
    "ZBAA": {
        "icao": "ZBAA",
        "name": "Beijing Capital International Airport",
        "city": "Beijing",
        "lat": 40.0801010132,
        "lon": 116.5849990845
    },
    "YPXM": {
        "icao": "YPXM",
        "name": "Christmas Island Airport",
        "city": "Christmas Island",
        "lat": -10.4505996704,
        "lon": 105.6900024414
    },
    "YPCC": {
        "icao": "YPCC",
        "name": "Cocos (Keeling) Islands Airport",
        "city": "Cocos (Keeling) Islands",
        "lat": -12.1883001328,
        "lon": 96.8339004517
    },
    "SKBO": {
        "icao": "SKBO",
        "name": "El Dorado International Airport",
        "city": "Bogota",
        "lat": 4.70159,
        "lon": -74.1469
    },
    "FMCH": {
        "icao": "FMCH",
        "name": "Prince Said Ibrahim International Airport",
        "city": "Moroni",
        "lat": -11.5336999893,
        "lon": 43.271900177
    },
    "NCRG": {
        "icao": "NCRG",
        "name": "Rarotonga International Airport",
        "city": "Avarua",
        "lat": -21.2026996613,
        "lon": -159.8059997559
    },
    "MROC": {
        "icao": "MROC",
        "name": "Juan Santamaria International Airport",
        "city": "San Jose",
        "lat": 9.9938602448,
        "lon": -84.2088012695
    },
    "LDZA": {
        "icao": "LDZA",
        "name": "Zagreb Airport",
        "city": "Zagreb",
        "lat": 45.7429008484,
        "lon": 16.0687999725
    },
    "MUHA": {
        "icao": "MUHA",
        "name": "Jose Marti International Airport",
        "city": "Havana",
        "lat": 22.989200592,
        "lon": -82.4091033936
    },
    "TNCC": {
        "icao": "TNCC",
        "name": "Hato International Airport",
        "city": "Willemstad",
        "lat": 12.1888999939,
        "lon": -68.9598007202
    },
    "LCEN": {
        "icao": "LCEN",
        "name": "Ercan International Airport",
        "city": "Nicosia",
        "lat": 35.1547012329,
        "lon": 33.4961013794
    },
    "LKPR": {
        "icao": "LKPR",
        "name": "Ruzyne International Airport",
        "city": "Prague",
        "lat": 50.1007995605,
        "lon": 14.2600002289
    },
    "DIYO": {
        "icao": "DIYO",
        "name": "Yamoussoukro Airport",
        "city": "Yamoussoukro",
        "lat": 6.9031701088,
        "lon": -5.3655800819
    },
    "FZAA": {
        "icao": "FZAA",
        "name": "Ndjili International Airport",
        "city": "Kinshasa",
        "lat": -4.3857498169,
        "lon": 15.4446001053
    },
    "EKCH": {
        "icao": "EKCH",
        "name": "Copenhagen Kastrup Airport",
        "city": "Copenhagen",
        "lat": 55.6179008484,
        "lon": 12.6560001373
    },
    "HDAM": {
        "icao": "HDAM",
        "name": "Djibouti-Ambouli Airport",
        "city": "Djibouti City",
        "lat": 11.5473003387,
        "lon": 43.1595001221
    },
    "MDSD": {
        "icao": "MDSD",
        "name": "Las Americas International Airport",
        "city": "Santo Domingo",
        "lat": 18.4297008514,
        "lon": -69.6688995361
    },
    "WPDL": {
        "icao": "WPDL",
        "name": "Presidente Nicolau Lobato International Airport",
        "city": "Dili",
        "lat": -8.5464000702,
        "lon": 125.526000977
    },
    "SEQM": {
        "icao": "SEQM",
        "name": "Nuevo Aeropuerto Internacional Mariscal Sucre",
        "city": "Quito",
        "lat": -0.1291666667,
        "lon": -78.3575
    },
    "HECA": {
        "icao": "HECA",
        "name": "Cairo International Airport",
        "city": "Cairo",
        "lat": 30.1219005585,
        "lon": 31.4055995941
    },
    "MSSS": {
        "icao": "MSSS",
        "name": "Ilopango International Airport",
        "city": "San Salvador",
        "lat": 13.6995000839,
        "lon": -89.1199035645
    },
    "FGSL": {
        "icao": "FGSL",
        "name": "Malabo Airport",
        "city": "Malabo",
        "lat": 3.7552700043,
        "lon": 8.7087202072
    },
    "HHAS": {
        "icao": "HHAS",
        "name": "Asmara International Airport",
        "city": "Asmara",
        "lat": 15.2918996811,
        "lon": 38.9107017517
    },
    "EETN": {
        "icao": "EETN",
        "name": "Tallinn Airport",
        "city": "Tallinn",
        "lat": 59.4132995605,
        "lon": 24.8327999115
    },
    "HAAB": {
        "icao": "HAAB",
        "name": "Bole International Airport",
        "city": "Addis Ababa",
        "lat": 8.9778900147,
        "lon": 38.7993011475
    },
    "SFAL": {
        "icao": "SFAL",
        "name": "Stanley Airport",
        "city": "Stanley",
        "lat": -51.6856994629,
        "lon": -57.7775993347
    },
    "EKVG": {
        "icao": "EKVG",
        "name": "Vagar Airport",
        "city": "Vagar",
        "lat": 62.0635986328,
        "lon": -7.2772197723
    },
    "PTPN": {
        "icao": "PTPN",
        "name": "Pohnpei International Airport",
        "city": "Pohnpei Island",
        "lat": 6.9850997925,
        "lon": 158.2089996338
    },
    "NFNA": {
        "icao": "NFNA",
        "name": "Nausori International Airport",
        "city": "Nausori",
        "lat": -18.0433006287,
        "lon": 178.5590057373
    },
    "EFHK": {
        "icao": "EFHK",
        "name": "Helsinki Vantaa Airport",
        "city": "Helsinki",
        "lat": 60.317199707,
        "lon": 24.963300705
    },
    "LFPG": {
        "icao": "LFPG",
        "name": "Charles de Gaulle International Airport",
        "city": "Paris",
        "lat": 49.0127983093,
        "lon": 2.5499999523
    },
    "SOCA": {
        "icao": "SOCA",
        "name": "Cayenne-Rochambeau Airport",
        "city": "Cayenne / Rochambeau",
        "lat": 4.8198099136,
        "lon": -52.3604011536
    },
    "NTAA": {
        "icao": "NTAA",
        "name": "Faa'a International Airport",
        "city": "Papeete",
        "lat": -17.5536994934,
        "lon": -149.606994629
    },
    "FOOL": {
        "icao": "FOOL",
        "name": "Leon M Ba Airport",
        "city": "Libreville",
        "lat": 0.4586000144,
        "lon": 9.4122800827
    },
    "GBYD": {
        "icao": "GBYD",
        "name": "Banjul International Airport",
        "city": "Banjul",
        "lat": 13.3380002975,
        "lon": -16.6522006989
    },
    "UGTB": {
        "icao": "UGTB",
        "name": "Tbilisi International Airport",
        "city": "Tbilisi",
        "lat": 41.6692008972,
        "lon": 44.95470047
    },
    "EDDB": {
        "icao": "EDDB",
        "name": "Berlin Brandenburg Airport",
        "city": "Berlin",
        "lat": 52.366667,
        "lon": 13.503333
    },
    "DGAA": {
        "icao": "DGAA",
        "name": "Kotoka International Airport",
        "city": "Accra",
        "lat": 5.6051898003,
        "lon": -0.1667860001
    },
    "LXGB": {
        "icao": "LXGB",
        "name": "Gibraltar Airport",
        "city": "Gibraltar",
        "lat": 36.1511993408,
        "lon": -5.3496599197
    },
    "LGAV": {
        "icao": "LGAV",
        "name": "Eleftherios Venizelos International Airport",
        "city": "Athens",
        "lat": 37.9364013672,
        "lon": 23.9444999695
    },
    "BGGH": {
        "icao": "BGGH",
        "name": "Godthaab / Nuuk Airport",
        "city": "Nuuk",
        "lat": 64.19090271,
        "lon": -51.6781005859
    },
    "TGPY": {
        "icao": "TGPY",
        "name": "Point Salines International Airport",
        "city": "Saint George's",
        "lat": 12.0041999817,
        "lon": -61.7862014771
    },
    "PGUM": {
        "icao": "PGUM",
        "name": "Antonio B. Won Pat International Airport",
        "city": "Hagatna",
        "lat": 13.4834003448,
        "lon": 144.796005249
    },
    "MGGT": {
        "icao": "MGGT",
        "name": "La Aurora Airport",
        "city": "Guatemala City",
        "lat": 14.5832996368,
        "lon": -90.5274963379
    },
    "EGJB": {
        "icao": "EGJB",
        "name": "Guernsey Airport",
        "city": "Saint Peter Port",
        "lat": 49.4350013733,
        "lon": -2.6019699574
    },
    "GUCY": {
        "icao": "GUCY",
        "name": "Conakry Airport",
        "city": "Conakry",
        "lat": 9.57689,
        "lon": -13.612
    },
    "GGOV": {
        "icao": "GGOV",
        "name": "Osvaldo Vieira International Airport",
        "city": "Bissau",
        "lat": 11.8948001862,
        "lon": -15.6536998749
    },
    "MTPP": {
        "icao": "MTPP",
        "name": "Toussaint Louverture International Airport",
        "city": "Port-au-Prince",
        "lat": 18.5799999237,
        "lon": -72.2925033569
    },
    "MHTG": {
        "icao": "MHTG",
        "name": "Toncontin International Airport",
        "city": "Tegucigalpa",
        "lat": 14.0608997345,
        "lon": -87.2172012329
    },
    "LHBP": {
        "icao": "LHBP",
        "name": "Budapest Liszt Ferenc International Airport",
        "city": "Budapest",
        "lat": 47.4369010925,
        "lon": 19.2555999756
    },
    "BIKF": {
        "icao": "BIKF",
        "name": "Keflavik International Airport",
        "city": "Reykjavik",
        "lat": 63.9850006104,
        "lon": -22.6056003571
    },
    "VIDP": {
        "icao": "VIDP",
        "name": "Indira Gandhi International Airport",
        "city": "New Delhi",
        "lat": 28.5664997101,
        "lon": 77.1031036377
    },
    "WIII": {
        "icao": "WIII",
        "name": "Soekarno-Hatta International Airport",
        "city": "Jakarta",
        "lat": -6.1255698204,
        "lon": 106.65599823
    },
    "OIIE": {
        "icao": "OIIE",
        "name": "Imam Khomeini International Airport",
        "city": "Tehran",
        "lat": 35.4160995483,
        "lon": 51.1521987915
    },
    "ORBI": {
        "icao": "ORBI",
        "name": "Baghdad International Airport",
        "city": "Baghdad",
        "lat": 33.2625007629,
        "lon": 44.2346000671
    },
    "EIDW": {
        "icao": "EIDW",
        "name": "Dublin Airport",
        "city": "Dublin",
        "lat": 53.4212989807,
        "lon": -6.270070076
    },
    "EGNS": {
        "icao": "EGNS",
        "name": "Isle of Man Airport",
        "city": "Castletown",
        "lat": 54.0833015442,
        "lon": -4.6238899231
    },
    "LIRF": {
        "icao": "LIRF",
        "name": "Leonardo Da Vinci (Fiumicino) International Airport",
        "city": "Rome",
        "lat": 41.8045005798,
        "lon": 12.2508001328
    },
    "MKJP": {
        "icao": "MKJP",
        "name": "Norman Manley International Airport",
        "city": "Kingston",
        "lat": 17.9356994629,
        "lon": -76.7874984741
    },
    "RJTT": {
        "icao": "RJTT",
        "name": "Tokyo International Airport",
        "city": "Tokyo",
        "lat": 35.5522994995,
        "lon": 139.7799987793
    },
    "EGJJ": {
        "icao": "EGJJ",
        "name": "Jersey Airport",
        "city": "Saint Helier",
        "lat": 49.207901001,
        "lon": -2.1955099106
    },
    "OJAI": {
        "icao": "OJAI",
        "name": "Queen Alia International Airport",
        "city": "Amman",
        "lat": 31.7226009369,
        "lon": 35.9931983948
    },
    "UACC": {
        "icao": "UACC",
        "name": "Astana International Airport",
        "city": "Astana",
        "lat": 51.0222015381,
        "lon": 71.4669036865
    },
    "HKJK": {
        "icao": "HKJK",
        "name": "Jomo Kenyatta International Airport",
        "city": "Nairobi",
        "lat": -1.319239974,
        "lon": 36.9277992249
    },
    "NGTA": {
        "icao": "NGTA",
        "name": "Bonriki International Airport",
        "city": "Tarawa",
        "lat": 1.3816399574,
        "lon": 173.1470031738
    },
    "BKPR": {
        "icao": "BKPR",
        "name": "Pristina International Airport",
        "city": "Prishtina",
        "lat": 42.5727996826,
        "lon": 21.0358009338
    },
    "OKBK": {
        "icao": "OKBK",
        "name": "Kuwait International Airport",
        "city": "Kuwait City",
        "lat": 29.226600647,
        "lon": 47.9688987732
    },
    "UCFM": {
        "icao": "UCFM",
        "name": "Manas International Airport",
        "city": "Bishkek",
        "lat": 43.061272,
        "lon": 74.477508
    },
    "VLVT": {
        "icao": "VLVT",
        "name": "Wattay International Airport",
        "city": "Vientiane",
        "lat": 17.9883003235,
        "lon": 102.56300354
    },
    "EVRA": {
        "icao": "EVRA",
        "name": "Riga International Airport",
        "city": "Riga",
        "lat": 56.9235992432,
        "lon": 23.9710998535
    },
    "OLBA": {
        "icao": "OLBA",
        "name": "Beirut Rafic Hariri International Airport",
        "city": "Beirut",
        "lat": 33.8208999634,
        "lon": 35.4883995056
    },
    "FXMM": {
        "icao": "FXMM",
        "name": "Moshoeshoe I International Airport",
        "city": "Maseru",
        "lat": -29.4622993469,
        "lon": 27.5524997711
    },
    "GLRB": {
        "icao": "GLRB",
        "name": "Roberts International Airport",
        "city": "Monrovia",
        "lat": 6.2337899208,
        "lon": -10.3622999191
    },
    "HLLT": {
        "icao": "HLLT",
        "name": "Tripoli International Airport",
        "city": "Tripoli",
        "lat": 32.6635017395,
        "lon": 13.1590003967
    },
    "LSZR": {
        "icao": "LSZR",
        "name": "St Gallen Altenrhein Airport",
        "city": "Altenrhein",
        "lat": 47.4850006104,
        "lon": 9.5607700348
    },
    "EYVI": {
        "icao": "EYVI",
        "name": "Vilnius International Airport",
        "city": "Vilnius",
        "lat": 54.6341018677,
        "lon": 25.2858009338
    },
    "ELLX": {
        "icao": "ELLX",
        "name": "Luxembourg-Findel International Airport",
        "city": "Luxembourg",
        "lat": 49.6265983582,
        "lon": 6.211520195
    },
    "LWSK": {
        "icao": "LWSK",
        "name": "Skopje Alexander the Great Airport",
        "city": "Skopje",
        "lat": 41.9616012573,
        "lon": 21.6214008331
    },
    "FMMI": {
        "icao": "FMMI",
        "name": "Ivato Airport",
        "city": "Antananarivo",
        "lat": -18.7968997955,
        "lon": 47.4788017273
    },
    "FWKI": {
        "icao": "FWKI",
        "name": "Lilongwe International Airport",
        "city": "Lilongwe",
        "lat": -13.7894001007,
        "lon": 33.78099823
    },
    "WMKK": {
        "icao": "WMKK",
        "name": "Kuala Lumpur International Airport",
        "city": "Kuala Lumpur",
        "lat": 2.745579958,
        "lon": 101.7099990845
    },
    "VRMM": {
        "icao": "VRMM",
        "name": "Male International Airport",
        "city": "Male",
        "lat": 4.1918301582,
        "lon": 73.5290985107
    },
    "GABS": {
        "icao": "GABS",
        "name": "Senou Airport",
        "city": "Senou",
        "lat": 12.5334997177,
        "lon": -7.9499402046
    },
    "LMML": {
        "icao": "LMML",
        "name": "Luqa Airport",
        "city": "Luqa",
        "lat": 35.857498,
        "lon": 14.4775
    },
    "PKMJ": {
        "icao": "PKMJ",
        "name": "Marshall Islands International Airport",
        "city": "Majuro Atoll",
        "lat": 7.0647602081,
        "lon": 171.2720031738
    },
    "GQNN": {
        "icao": "GQNN",
        "name": "Nouakchott International Airport",
        "city": "Nouakchott",
        "lat": 18.0981998444,
        "lon": -15.9484996796
    },
    "FIMP": {
        "icao": "FIMP",
        "name": "Sir Seewoosagur Ramgoolam International Airport",
        "city": "Port Louis",
        "lat": -20.4302005768,
        "lon": 57.6836013794
    },
    "MMMX": {
        "icao": "MMMX",
        "name": "Licenciado Benito Juarez International Airport",
        "city": "Mexico City",
        "lat": 19.4363002777,
        "lon": -99.0720977783
    },
    "LUKK": {
        "icao": "LUKK",
        "name": "Chisinau International Airport",
        "city": "Chisinau",
        "lat": 46.9277000427,
        "lon": 28.9309997559
    },
    "LFMN": {
        "icao": "LFMN",
        "name": "Nice-Cote d'Azur Airport",
        "city": "Nice",
        "lat": 43.6584014893,
        "lon": 7.2158699036
    },
    "ZMUB": {
        "icao": "ZMUB",
        "name": "Chinggis Khaan International Airport",
        "city": "Ulan Bator",
        "lat": 47.8431015015,
        "lon": 106.766998291
    },
    "LYPG": {
        "icao": "LYPG",
        "name": "Podgorica Airport",
        "city": "Podgorica",
        "lat": 42.3594017029,
        "lon": 19.2518997192
    },
    "EGHD": {
        "icao": "EGHD",
        "name": "Plymouth City Airport",
        "city": "Plymouth",
        "lat": 50.4227981567,
        "lon": -4.1058301926
    },
    "GMME": {
        "icao": "GMME",
        "name": "Rabat-Sale Airport",
        "city": "Rabat",
        "lat": 34.0514984131,
        "lon": -6.7515201569
    },
    "FQMA": {
        "icao": "FQMA",
        "name": "Maputo Airport",
        "city": "Maputo",
        "lat": -25.9207992554,
        "lon": 32.5726013184
    },
    "VYEL": {
        "icao": "VYEL",
        "name": "Naypyidaw Airport",
        "city": "Pyinmana",
        "lat": 19.623500824,
        "lon": 96.2009963989
    },
    "FYWH": {
        "icao": "FYWH",
        "name": "Hosea Kutako International Airport",
        "city": "Windhoek",
        "lat": -22.4799003601,
        "lon": 17.4708995819
    },
    "ANYN": {
        "icao": "ANYN",
        "name": "Nauru International Airport",
        "city": "Yaren District",
        "lat": -0.547458,
        "lon": 166.919006
    },
    "VNKT": {
        "icao": "VNKT",
        "name": "Tribhuvan International Airport",
        "city": "Kathmandu",
        "lat": 27.6965999603,
        "lon": 85.3591003418
    },
    "EHAM": {
        "icao": "EHAM",
        "name": "Amsterdam Airport Schiphol",
        "city": "Amsterdam",
        "lat": 52.3086013794,
        "lon": 4.7638897896
    },
    "NWWW": {
        "icao": "NWWW",
        "name": "La Tontouta International Airport",
        "city": "Noumea",
        "lat": -22.0146007538,
        "lon": 166.2129974365
    },
    "NZWN": {
        "icao": "NZWN",
        "name": "Wellington International Airport",
        "city": "Wellington",
        "lat": -41.3272018433,
        "lon": 174.804992676
    },
    "MNMG": {
        "icao": "MNMG",
        "name": "Augusto C. Sandino (Managua) International Airport",
        "city": "Managua",
        "lat": 12.141500473,
        "lon": -86.1681976318
    },
    "DRRN": {
        "icao": "DRRN",
        "name": "Diori Hamani International Airport",
        "city": "Niamey",
        "lat": 13.4814996719,
        "lon": 2.1836099625
    },
    "DNAA": {
        "icao": "DNAA",
        "name": "Nnamdi Azikiwe International Airport",
        "city": "Abuja",
        "lat": 9.0067901611,
        "lon": 7.2631697655
    },
    "NIUE": {
        "icao": "NIUE",
        "name": "Niue International Airport",
        "city": "Alofi",
        "lat": -19.0790309906,
        "lon": -169.9255981445
    },
    "ZKPY": {
        "icao": "ZKPY",
        "name": "Sunan International Airport",
        "city": "Pyongyang",
        "lat": 39.2240982056,
        "lon": 125.6699981689
    },
    "EGAA": {
        "icao": "EGAA",
        "name": "Belfast International Airport",
        "city": "Belfast",
        "lat": 54.6575012207,
        "lon": -6.2158298492
    },
    "PGSN": {
        "icao": "PGSN",
        "name": "Francisco C. Ada Saipan International Airport",
        "city": "Saipan Island",
        "lat": 15.1190004349,
        "lon": 145.7290039063
    },
    "ENGM": {
        "icao": "ENGM",
        "name": "Oslo Gardermoen Airport",
        "city": "Oslo",
        "lat": 60.193901062,
        "lon": 11.100399971
    },
    "OOMS": {
        "icao": "OOMS",
        "name": "Muscat International Airport",
        "city": "Muscat",
        "lat": 23.5932998657,
        "lon": 58.2844009399
    },
    "OPIS": {
        "icao": "OPIS",
        "name": "Islamabad International Airport",
        "city": "Islamabad",
        "lat": 33.5490833333333,
        "lon": 72.82565
    },
    "PTRO": {
        "icao": "PTRO",
        "name": "Babelthuap Airport",
        "city": "Babelthuap Island",
        "lat": 7.367650032,
        "lon": 134.5440063477
    },
    "MPHO": {
        "icao": "MPHO",
        "name": "Howard Airport",
        "city": "Panama City",
        "lat": 8.9147901535,
        "lon": -79.5996017456
    },
    "AYPY": {
        "icao": "AYPY",
        "name": "Port Moresby Jacksons International Airport",
        "city": "Port Moresby",
        "lat": -9.4433803558,
        "lon": 147.2200012207
    },
    "SGBN": {
        "icao": "SGBN",
        "name": "Bahia Negra Airport",
        "city": "Bahia Negra",
        "lat": -20.2245998383,
        "lon": -58.1791992188
    },
    "SPJC": {
        "icao": "SPJC",
        "name": "Jorge Chavez International Airport",
        "city": "Lima",
        "lat": -12.021900177,
        "lon": -77.1143035889
    },
    "RPLL": {
        "icao": "RPLL",
        "name": "Ninoy Aquino International Airport",
        "city": "Manila",
        "lat": 14.508600235,
        "lon": 121.019996643
    },
    "NTGJ": {
        "icao": "NTGJ",
        "name": "Totegegie Airport",
        "city": "",
        "lat": -23.0799007416,
        "lon": -134.8899993896
    },
    "EPWA": {
        "icao": "EPWA",
        "name": "Warsaw Chopin Airport",
        "city": "Warsaw",
        "lat": 52.1656990051,
        "lon": 20.9671001434
    },
    "LPPT": {
        "icao": "LPPT",
        "name": "Lisbon Portela Airport",
        "city": "Lisbon",
        "lat": 38.7812995911,
        "lon": -9.1359195709
    },
    "TJSJ": {
        "icao": "TJSJ",
        "name": "Luis Munoz Marin International Airport",
        "city": "San Juan",
        "lat": 18.4393997192,
        "lon": -66.0018005371
    },
    "OTHH": {
        "icao": "OTHH",
        "name": "Hamad International Airport",
        "city": "Doha",
        "lat": 25.2605946,
        "lon": 51.6137665
    },
    "RCTP": {
        "icao": "RCTP",
        "name": "Taiwan Taoyuan International Airport",
        "city": "Taipei",
        "lat": 25.0776996613,
        "lon": 121.233001709
    },
    "FCBB": {
        "icao": "FCBB",
        "name": "Maya-Maya Airport",
        "city": "Brazzaville",
        "lat": -4.2516999245,
        "lon": 15.2530002594
    },
    "LROP": {
        "icao": "LROP",
        "name": "Henri Coanda International Airport",
        "city": "Bucharest",
        "lat": 44.5722007751,
        "lon": 26.1021995544
    },
    "UUEE": {
        "icao": "UUEE",
        "name": "Sheremetyevo International Airport",
        "city": "Moscow",
        "lat": 55.9725990295,
        "lon": 37.4146003723
    },
    "HRYR": {
        "icao": "HRYR",
        "name": "Kigali International Airport",
        "city": "Kigali",
        "lat": -1.9686299563,
        "lon": 30.1394996643
    },
    "TFFJ": {
        "icao": "TFFJ",
        "name": "Gustaf III Airport",
        "city": "Gustavia",
        "lat": 17.9043998718,
        "lon": -62.8436012268
    },
    "TKPK": {
        "icao": "TKPK",
        "name": "Robert L. Bradshaw International Airport",
        "city": "Basseterre",
        "lat": 17.3111991882,
        "lon": -62.7187004089
    },
    "TLPC": {
        "icao": "TLPC",
        "name": "George F. L. Charles Airport",
        "city": "Castries",
        "lat": 14.0202,
        "lon": -60.992901
    },
    "TDPD": {
        "icao": "TDPD",
        "name": "Melville Hall Airport",
        "city": "Marigot",
        "lat": 15.5469999313,
        "lon": -61.2999992371
    },
    "FMEP": {
        "icao": "FMEP",
        "name": "Pierrefonds Airport",
        "city": "St Pierre",
        "lat": -21.3208999634,
        "lon": 55.4249992371
    },
    "TVSV": {
        "icao": "TVSV",
        "name": "E. T. Joshua Airport",
        "city": "Kingstown",
        "lat": 13.1443004608,
        "lon": -61.210899353
    },
    "NSFA": {
        "icao": "NSFA",
        "name": "Faleolo International Airport",
        "city": "Apia",
        "lat": -13.8299999237,
        "lon": -172.0079956055
    },
    "LIPR": {
        "icao": "LIPR",
        "name": "Rimini / Miramare - Federico Fellini International Airport",
        "city": "Rimini",
        "lat": 44.0203018188,
        "lon": 12.611700058
    },
    "OERK": {
        "icao": "OERK",
        "name": "King Khaled International Airport",
        "city": "Riyadh",
        "lat": 24.9575996399,
        "lon": 46.6987991333
    },
    "EGPH": {
        "icao": "EGPH",
        "name": "Edinburgh Airport",
        "city": "Edinburgh",
        "lat": 55.9500007629,
        "lon": -3.3724999428
    },
    "GOOY": {
        "icao": "GOOY",
        "name": "Leopold Sedar Senghor International Airport",
        "city": "Dakar",
        "lat": 14.7397003174,
        "lon": -17.4902000427
    },
    "LYBE": {
        "icao": "LYBE",
        "name": "Belgrade Nikola Tesla Airport",
        "city": "Belgrad",
        "lat": 44.8184013367,
        "lon": 20.3090991974
    },
    "FSIA": {
        "icao": "FSIA",
        "name": "Seychelles International Airport",
        "city": "Mahe Island",
        "lat": -4.6743397713,
        "lon": 55.5218009949
    },
    "GFLL": {
        "icao": "GFLL",
        "name": "Lungi International Airport",
        "city": "Freetown",
        "lat": 8.6164398193,
        "lon": -13.1955003738
    },
    "WSSS": {
        "icao": "WSSS",
        "name": "Singapore Changi International Airport",
        "city": "Singapore",
        "lat": 1.3501900434,
        "lon": 103.9940032959
    },
    "TNCM": {
        "icao": "TNCM",
        "name": "Princess Juliana International Airport",
        "city": "Saint Martin",
        "lat": 18.0410003662,
        "lon": -63.1088981628
    },
    "LZIB": {
        "icao": "LZIB",
        "name": "M. R. Stefanik Airport",
        "city": "Bratislava",
        "lat": 48.1702003479,
        "lon": 17.2126998901
    },
    "LJLJ": {
        "icao": "LJLJ",
        "name": "Ljubljana Joze Pucnik Airport",
        "city": "Ljubljana",
        "lat": 46.2237014771,
        "lon": 14.4575996399
    },
    "AGGH": {
        "icao": "AGGH",
        "name": "Honiara International Airport",
        "city": "Honiara",
        "lat": -9.4280004501,
        "lon": 160.0549926758
    },
    "HCMM": {
        "icao": "HCMM",
        "name": "Aden Adde International Airport",
        "city": "Mogadishu",
        "lat": 2.0144400597,
        "lon": 45.3046989441
    },
    "HCMH": {
        "icao": "HCMH",
        "name": "Egal International Airport",
        "city": "Hargeisa",
        "lat": 9.5181703568,
        "lon": 44.0887985229
    },
    "FAWK": {
        "icao": "FAWK",
        "name": "Waterkloof Air Force Base",
        "city": "Pretoria",
        "lat": -25.8299999237,
        "lon": 28.2224998474
    },
    "RKSI": {
        "icao": "RKSI",
        "name": "Incheon International Airport",
        "city": "Seoul",
        "lat": 37.4691009521,
        "lon": 126.4509963989
    },
    "URMO": {
        "icao": "URMO",
        "name": "Beslan Airport",
        "city": "Beslan",
        "lat": 43.2051010132,
        "lon": 44.6066017151
    },
    "HSSJ": {
        "icao": "HSSJ",
        "name": "Juba Airport",
        "city": "Juba",
        "lat": 4.872010231,
        "lon": 31.6011009216
    },
    "LEMD": {
        "icao": "LEMD",
        "name": "Madrid Barajas International Airport",
        "city": "Madrid",
        "lat": 40.4936,
        "lon": -3.56676
    },
    "VCBI": {
        "icao": "VCBI",
        "name": "Bandaranaike International Colombo Airport",
        "city": "Colombo",
        "lat": 7.1807599068,
        "lon": 79.8841018677
    },
    "HSSS": {
        "icao": "HSSS",
        "name": "Khartoum International Airport",
        "city": "Khartoum",
        "lat": 15.5895004272,
        "lon": 32.5531997681
    },
    "SMZO": {
        "icao": "SMZO",
        "name": "Zorg en Hoop Airport",
        "city": "Paramaribo",
        "lat": 5.8110799789,
        "lon": -55.190700531
    },
    "FDBT": {
        "icao": "FDBT",
        "name": "Tambuti Airport",
        "city": "Big Bend",
        "lat": -26.735200882,
        "lon": 31.7758998871
    },
    "ESSA": {
        "icao": "ESSA",
        "name": "Stockholm-Arlanda Airport",
        "city": "Stockholm",
        "lat": 59.6519012451,
        "lon": 17.9186000824
    },
    "LSZB": {
        "icao": "LSZB",
        "name": "Bern Belp Airport",
        "city": "Bern",
        "lat": 46.914100647,
        "lon": 7.4971499443
    },
    "OSDI": {
        "icao": "OSDI",
        "name": "Damascus International Airport",
        "city": "Damascus",
        "lat": 33.4114990234,
        "lon": 36.5155982971
    },
    "FPST": {
        "icao": "FPST",
        "name": "Sao Tome International Airport",
        "city": "Sao Tome",
        "lat": 0.3781749904,
        "lon": 6.7121500969
    },
    "UTDD": {
        "icao": "UTDD",
        "name": "Dushanbe Airport",
        "city": "Dushanbe",
        "lat": 38.5433006287,
        "lon": 68.8249969482
    },
    "HTDO": {
        "icao": "HTDO",
        "name": "Dodoma Airport",
        "city": "Dodoma",
        "lat": -6.170440197,
        "lon": 35.7526016235
    },
    "VTBD": {
        "icao": "VTBD",
        "name": "Don Mueang International Airport",
        "city": "Bangkok",
        "lat": 13.9125995636,
        "lon": 100.6070022583
    },
    "DXXX": {
        "icao": "DXXX",
        "name": "Lome-Tokoin Airport",
        "city": "Lome",
        "lat": 6.1656098366,
        "lon": 1.2545100451
    },
    "NFTE": {
        "icao": "NFTE",
        "name": "Kaufana Airport",
        "city": "Eua Island",
        "lat": -21.3782997131,
        "lon": -174.957992554
    },
    "LUTR": {
        "icao": "LUTR",
        "name": "Tiraspol Airport",
        "city": "Tiraspol",
        "lat": 46.8680992126,
        "lon": 29.5905990601
    },
    "TTPP": {
        "icao": "TTPP",
        "name": "Piarco International Airport",
        "city": "Port of Spain",
        "lat": 10.5953998566,
        "lon": -61.3372001648
    },
    "FHAW": {
        "icao": "FHAW",
        "name": "RAF Ascension Island",
        "city": "Ascension Island",
        "lat": -7.9696002007,
        "lon": -14.393699646
    },
    "DTTA": {
        "icao": "DTTA",
        "name": "Tunis Carthage International Airport",
        "city": "Tunis",
        "lat": 36.8510017395,
        "lon": 10.2271995544
    },
    "LTAC": {
        "icao": "LTAC",
        "name": "Esenboga International Airport",
        "city": "Ankara",
        "lat": 40.1281013489,
        "lon": 32.995098114
    },
    "UTAA": {
        "icao": "UTAA",
        "name": "Ashgabat Airport",
        "city": "Ashgabat",
        "lat": 37.9868011475,
        "lon": 58.361000061
    },
    "MBGT": {
        "icao": "MBGT",
        "name": "JAGS McCartney International Airport",
        "city": "Cockburn Town",
        "lat": 21.4444999695,
        "lon": -71.1423034668
    },
    "NGFU": {
        "icao": "NGFU",
        "name": "Funafuti International Airport",
        "city": "Funafuti",
        "lat": -8.525,
        "lon": 179.195999
    },
    "HUEN": {
        "icao": "HUEN",
        "name": "Entebbe International Airport",
        "city": "Kampala",
        "lat": 0.0423859991,
        "lon": 32.4435005188
    },
    "UKKK": {
        "icao": "UKKK",
        "name": "Kiev Zhuliany International Airport",
        "city": "Kiev",
        "lat": 50.4016990662,
        "lon": 30.4496994019
    },
    "OMAA": {
        "icao": "OMAA",
        "name": "Abu Dhabi International Airport",
        "city": "Abu Dhabi",
        "lat": 24.4330005646,
        "lon": 54.6511001587
    },
    "EGLL": {
        "icao": "EGLL",
        "name": "London Heathrow Airport",
        "city": "London",
        "lat": 51.4706001282,
        "lon": -0.4619410038
    },
    "KIAD": {
        "icao": "KIAD",
        "name": "Washington Dulles International Airport",
        "city": "Dulles",
        "lat": 38.94449997,
        "lon": -77.45580292
    },
    "TIST": {
        "icao": "TIST",
        "name": "Cyril E. King Airport",
        "city": "Charlotte Amalie",
        "lat": 18.3372993469,
        "lon": -64.9733963013
    },
    "SUMU": {
        "icao": "SUMU",
        "name": "Carrasco International /General C L Berisso Airport",
        "city": "Montevideo",
        "lat": -34.8384017944,
        "lon": -56.0307998657
    },
    "UTTT": {
        "icao": "UTTT",
        "name": "Tashkent International Airport",
        "city": "Tashkent",
        "lat": 41.257900238,
        "lon": 69.2811965942
    },
    "NVVV": {
        "icao": "NVVV",
        "name": "Port Vila Bauerfield Airport",
        "city": "Port Vila",
        "lat": -17.699300766,
        "lon": 168.3200073242
    },
    "SVMI": {
        "icao": "SVMI",
        "name": "Maiquetia (Simon Bolivar Internacional) Airport",
        "city": "Caracas",
        "lat": 10.6031169891,
        "lon": -66.9905853271
    },
    "VVNB": {
        "icao": "VVNB",
        "name": "Noi Bai International Airport",
        "city": "Hanoi",
        "lat": 21.221200943,
        "lon": 105.8069992065
    },
    "EGFF": {
        "icao": "EGFF",
        "name": "Cardiff International Airport",
        "city": "Cardiff",
        "lat": 51.3967018127,
        "lon": -3.3433299065
    },
    "NLWW": {
        "icao": "NLWW",
        "name": "Hihifo Airport",
        "city": "Wallis Island",
        "lat": -13.2383003235,
        "lon": -176.199005127
    },
    "GMML": {
        "icao": "GMML",
        "name": "Hassan I Airport",
        "city": "El Aaiun",
        "lat": 27.1516990662,
        "lon": -13.2192001343
    },
    "OYSN": {
        "icao": "OYSN",
        "name": "Sana'a International Airport",
        "city": "Sana'a",
        "lat": 15.4763002396,
        "lon": 44.2196998596
    },
    "FLLS": {
        "icao": "FLLS",
        "name": "Lusaka International Airport",
        "city": "Lusaka",
        "lat": -15.3308000565,
        "lon": 28.4526004791
    },
    "FVHA": {
        "icao": "FVHA",
        "name": "Harare International Airport",
        "city": "Harare",
        "lat": -17.9318008423,
        "lon": 31.0928001404
    }
}