{
    "Douglas": {
        "icao": "WY66",
        "iata": "",
        "name": "chamberlain brothers ranch airport",
        "city": "Douglas",
        "state": "",
        "country": "",
        "elevation": 0,
        "lat": 42.7522010803,
        "lon": -105.6200027466,
        "tz": ""
    },
    "Belgrade": {
        "icao": "ME60",
        "iata": "",
        "name": "sunny hill airport",
        "city": "Belgrade",
        "state": "",
        "country": "",
        "elevation": 0,
        "lat": 44.4683990479,
        "lon": -69.8178024292,
        "tz": ""
    },
    "Rome": {
        "icao": "LIRF",
        "iata": "FCO",
        "name": "Leonardo Da Vinci (Fiumicino) International Airport",
        "city": "Rome",
        "state": "Latium",
        "country": "IT",
        "elevation": 15,
        "lat": 41.8045005798,
        "lon": 12.2508001328,
        "tz": "Europe\/Rome"
    },
    "Moscow": {
        "icao": "6PA6",
        "iata": "",
        "name": "air haven airport",
        "city": "Moscow",
        "state": "",
        "country": "",
        "elevation": 0,
        "lat": 41.3501014709,
        "lon": -75.483001709,
        "tz": ""
    },
    "Amman": {
        "icao": "OJAM",
        "iata": "",
        "name": "amman-marka international airport",
        "city": "Amman",
        "state": "",
        "country": "",
        "elevation": 0,
        "lat": 31.972700119,
        "lon": 35.9916000366,
        "tz": ""
    },
    "Madrid": {
        "icao": "SKMA",
        "iata": "",
        "name": "madrid air base",
        "city": "Madrid",
        "state": "",
        "country": "",
        "elevation": 0,
        "lat": 4.7278,
        "lon": -74.2754,
        "tz": ""
    },
    "Paris": {
        "icao": "31KY",
        "iata": "",
        "name": "wild blue airport",
        "city": "Paris",
        "state": "",
        "country": "",
        "elevation": 0,
        "lat": 38.1105995178,
        "lon": -84.3221969604,
        "tz": ""
    },
    "Jamestown": {
        "icao": "KK24",
        "iata": "",
        "name": "russell county airport",
        "city": "Jamestown",
        "state": "",
        "country": "",
        "elevation": 0,
        "lat": 37.0097007751,
        "lon": -85.1026992798,
        "tz": ""
    },
    "La paz": {
        "icao": "MP24",
        "iata": "",
        "name": "chame airport",
        "city": "La paz",
        "state": "",
        "country": "",
        "elevation": 0,
        "lat": 8.5884599686,
        "lon": -79.8897018433,
        "tz": ""
    },
    "Athens": {
        "icao": "81WI",
        "iata": "",
        "name": "gunner field",
        "city": "Athens",
        "state": "",
        "country": "",
        "elevation": 0,
        "lat": 45.0786018372,
        "lon": -90.1764984131,
        "tz": ""
    },
    "Lima": {
        "icao": "OH91",
        "iata": "",
        "name": "dave rice ultralightport",
        "city": "Lima",
        "state": "",
        "country": "",
        "elevation": 0,
        "lat": 40.70009995,
        "lon": -84.23439789,
        "tz": ""
    },
    "Santiago": {
        "icao": "SEGZ",
        "iata": "",
        "name": "gualaquiza airport",
        "city": "Santiago",
        "state": "",
        "country": "",
        "elevation": 0,
        "lat": -3.4232099056,
        "lon": -78.5670013428,
        "tz": ""
    },
    "San jose": {
        "icao": "RPUH",
        "iata": "",
        "name": "san jose airport",
        "city": "San jose",
        "state": "",
        "country": "",
        "elevation": 0,
        "lat": 12.3614997864,
        "lon": 121.04699707,
        "tz": ""
    },
    "Georgetown": {
        "icao": "SYCJ",
        "iata": "",
        "name": "cheddi jagan international airport",
        "city": "Georgetown",
        "state": "",
        "country": "",
        "elevation": 0,
        "lat": 6.4985499382,
        "lon": -58.2541007996,
        "tz": ""
    },
    "Pretoria": {
        "icao": "FASK",
        "iata": "",
        "name": "swartkop air force base",
        "city": "Pretoria",
        "state": "",
        "country": "",
        "elevation": 0,
        "lat": -25.8097000122,
        "lon": 28.1646003723,
        "tz": ""
    },
    "Panama city": {
        "icao": "MPPA",
        "iata": "",
        "name": "howard/panama pacifico international airport",
        "city": "Panama city",
        "state": "",
        "country": "",
        "elevation": 0,
        "lat": 8.9147901535,
        "lon": -79.5996017456,
        "tz": ""
    },
    "Sukhumi": {
        "icao": "UGSS",
        "iata": "",
        "name": "sukhumi dranda airport",
        "city": "Sukhumi",
        "state": "",
        "country": "",
        "elevation": 0,
        "lat": 42.8582000732,
        "lon": 41.1281013489,
        "tz": ""
    },
    "Havana": {
        "icao": "MUPB",
        "iata": "",
        "name": "playa baracoa airport",
        "city": "Havana",
        "state": "",
        "country": "",
        "elevation": 0,
        "lat": 23.0328006744,
        "lon": -82.5793991089,
        "tz": ""
    },
    "Luanda": {
        "icao": "FNLU",
        "iata": "",
        "name": "quatro de fevereiro airport",
        "city": "Luanda",
        "state": "",
        "country": "",
        "elevation": 0,
        "lat": -8.8583698273,
        "lon": 13.2312002182,
        "tz": ""
    },
    "Tripoli": {
        "icao": "LGTP",
        "iata": "",
        "name": "tripolis airport",
        "city": "Tripoli",
        "state": "",
        "country": "",
        "elevation": 0,
        "lat": 37.5306015015,
        "lon": 22.4036006927,
        "tz": ""
    },
    "Riga": {
        "icao": "EVRC",
        "iata": "",
        "name": "rumbula air base",
        "city": "Riga",
        "state": "",
        "country": "",
        "elevation": 0,
        "lat": 56.8833007812,
        "lon": 24.2266998291,
        "tz": ""
    },
    "Vienna": {
        "icao": "79OH",
        "iata": "",
        "name": "smith-stewart field",
        "city": "Vienna",
        "state": "",
        "country": "",
        "elevation": 0,
        "lat": 41.2098007202,
        "lon": -80.6830978394,
        "tz": ""
    },
    "Dublin": {
        "icao": "17XS",
        "iata": "",
        "name": "quahadi ranch airport",
        "city": "Dublin",
        "state": "",
        "country": "",
        "elevation": 0,
        "lat": 32.1777992249,
        "lon": -98.4349975586,
        "tz": ""
    },
    "Ottawa": {
        "icao": "0KS3",
        "iata": "",
        "name": "camp chippewa airport",
        "city": "Ottawa",
        "state": "",
        "country": "",
        "elevation": 0,
        "lat": 38.5666999817,
        "lon": -95.366897583,
        "tz": ""
    },
    "Sucre": {
        "icao": "SLSU",
        "iata": "",
        "name": "juana azurduy de padilla airport",
        "city": "Sucre",
        "state": "",
        "country": "",
        "elevation": 0,
        "lat": -19.0070991516,
        "lon": -65.2886962891,
        "tz": ""
    },
    "Abu dhabi": {
        "icao": "OMAA",
        "iata": "",
        "name": "abu dhabi international airport",
        "city": "Abu dhabi",
        "state": "",
        "country": "",
        "elevation": 0,
        "lat": 24.4330005646,
        "lon": 54.6511001587,
        "tz": ""
    },
    "Vilnius": {
        "icao": "EYVI",
        "iata": "",
        "name": "vilnius international airport",
        "city": "Vilnius",
        "state": "",
        "country": "",
        "elevation": 0,
        "lat": 54.6341018677,
        "lon": 25.2858009338,
        "tz": ""
    },
    "Beirut": {
        "icao": "OLBA",
        "iata": "",
        "name": "beirut rafic hariri international airport",
        "city": "Beirut",
        "state": "",
        "country": "",
        "elevation": 0,
        "lat": 33.8208999634,
        "lon": 35.4883995056,
        "tz": ""
    },
    "George town": {
        "icao": "MYEG",
        "iata": "",
        "name": "george town airport",
        "city": "George town",
        "state": "",
        "country": "",
        "elevation": 0,
        "lat": 23.4666996002,
        "lon": -75.7817001343,
        "tz": ""
    },
    "Algiers": {
        "icao": "DAAG",
        "iata": "",
        "name": "houari boumediene airport",
        "city": "Algiers",
        "state": "",
        "country": "",
        "elevation": 0,
        "lat": 36.6910018921,
        "lon": 3.2154099941,
        "tz": ""
    },
    "Road town": {
        "icao": "TUPJ",
        "iata": "",
        "name": "terrance b. lettsome international airport",
        "city": "Road town",
        "state": "",
        "country": "",
        "elevation": 0,
        "lat": 18.4447994232,
        "lon": -64.5429992676,
        "tz": ""
    },
    "Yerevan": {
        "icao": "UDYE",
        "iata": "",
        "name": "erebuni airport",
        "city": "Yerevan",
        "state": "",
        "country": "",
        "elevation": 0,
        "lat": 40.1221008301,
        "lon": 44.4650001526,
        "tz": ""
    },
    "Port of spain": {
        "icao": "TTPP",
        "iata": "",
        "name": "piarco international airport",
        "city": "Port of spain",
        "state": "",
        "country": "",
        "elevation": 0,
        "lat": 10.5953998566,
        "lon": -61.3372001648,
        "tz": ""
    },
    "London": {
        "icao": "OH88",
        "iata": "",
        "name": "roberts airport",
        "city": "London",
        "state": "",
        "country": "",
        "elevation": 0,
        "lat": 39.8527984619,
        "lon": -83.4704971313,
        "tz": ""
    },
    "Lusaka": {
        "icao": "FLLS",
        "iata": "",
        "name": "lusaka international airport",
        "city": "Lusaka",
        "state": "",
        "country": "",
        "elevation": 0,
        "lat": -15.3308000565,
        "lon": 28.4526004791,
        "tz": ""
    },
    "Freetown": {
        "icao": "GFLL",
        "iata": "",
        "name": "lungi international airport",
        "city": "Freetown",
        "state": "",
        "country": "",
        "elevation": 0,
        "lat": 8.6164398193,
        "lon": -13.1955003738,
        "tz": ""
    },
    "Berlin": {
        "icao": "MA19",
        "iata": "",
        "name": "berlin lndg area",
        "city": "Berlin",
        "state": "",
        "country": "",
        "elevation": 0,
        "lat": 42.3675994873,
        "lon": -71.6417007446,
        "tz": ""
    },
    "Victoria": {
        "icao": "42TE",
        "iata": "",
        "name": "ball airport",
        "city": "Victoria",
        "state": "",
        "country": "",
        "elevation": 0,
        "lat": 28.8878002167,
        "lon": -97.0211029053,
        "tz": ""
    },
    "Zagreb": {
        "icao": "LDZA",
        "iata": "",
        "name": "zagreb airport",
        "city": "Zagreb",
        "state": "",
        "country": "",
        "elevation": 0,
        "lat": 45.7429008484,
        "lon": 16.0687999725,
        "tz": ""
    },
    "Tokyo": {
        "icao": "RJTC",
        "iata": "",
        "name": "tachikawa airfield",
        "city": "Tokyo",
        "state": "",
        "country": "",
        "elevation": 0,
        "lat": 35.7108001709,
        "lon": 139.4029998779,
        "tz": ""
    },
    "Saint george's": {
        "icao": "TGPY",
        "iata": "",
        "name": "point salines international airport",
        "city": "Saint george's",
        "state": "",
        "country": "",
        "elevation": 0,
        "lat": 12.0041999817,
        "lon": -61.7862014771,
        "tz": ""
    },
    "Mexico city": {
        "icao": "MMMX",
        "iata": "",
        "name": "licenciado benito juarez international airport",
        "city": "Mexico city",
        "state": "",
        "country": "",
        "elevation": 0,
        "lat": 19.4363002777,
        "lon": -99.0720977783,
        "tz": ""
    },
    "Montevideo": {
        "icao": "SUAA",
        "iata": "",
        "name": "angel s adami airport",
        "city": "Montevideo",
        "state": "",
        "country": "",
        "elevation": 0,
        "lat": -34.7891998291,
        "lon": -56.2647018433,
        "tz": ""
    },
    "Taipei": {
        "icao": "RCTP",
        "iata": "",
        "name": "taiwan taoyuan international airport",
        "city": "Taipei",
        "state": "",
        "country": "",
        "elevation": 0,
        "lat": 25.0776996613,
        "lon": 121.233001709,
        "tz": ""
    },
    "Bishkek": {
        "icao": "UCFM",
        "iata": "",
        "name": "manas international airport",
        "city": "Bishkek",
        "state": "",
        "country": "",
        "elevation": 0,
        "lat": 43.061272,
        "lon": 74.477508,
        "tz": ""
    },
    "Kingston": {
        "icao": "12TN",
        "iata": "",
        "name": "riley creek airport",
        "city": "Kingston",
        "state": "",
        "country": "",
        "elevation": 0,
        "lat": 35.8236999512,
        "lon": -84.5388031006,
        "tz": ""
    },
    "Warsaw": {
        "icao": "KRAW",
        "iata": "",
        "name": "warsaw municipal airport",
        "city": "Warsaw",
        "state": "",
        "country": "",
        "elevation": 0,
        "lat": 38.3469009399,
        "lon": -93.3453979492,
        "tz": ""
    },
    "Cardiff": {
        "icao": "EGFF",
        "iata": "",
        "name": "cardiff international airport",
        "city": "Cardiff",
        "state": "",
        "country": "",
        "elevation": 0,
        "lat": 51.3967018127,
        "lon": -3.3433299065,
        "tz": ""
    },
    "Pyongyang": {
        "icao": "ZKPY",
        "iata": "",
        "name": "sunan international airport",
        "city": "Pyongyang",
        "state": "",
        "country": "",
        "elevation": 0,
        "lat": 39.2240982056,
        "lon": 125.6699981689,
        "tz": ""
    },
    "Praia": {
        "icao": "GVNP",
        "iata": "",
        "name": "praia international airport",
        "city": "Praia",
        "state": "",
        "country": "",
        "elevation": 0,
        "lat": 14.9245004654,
        "lon": -23.4934997559,
        "tz": ""
    },
    "Hamilton": {
        "icao": "47MO",
        "iata": "",
        "name": "cliff scott airport",
        "city": "Hamilton",
        "state": "",
        "country": "",
        "elevation": 0,
        "lat": 39.7402992249,
        "lon": -93.9905014038,
        "tz": ""
    },
    "Minsk": {
        "icao": "UMMB",
        "iata": "",
        "name": "borovaya airfield",
        "city": "Minsk",
        "state": "",
        "country": "",
        "elevation": 0,
        "lat": 53.5699996948,
        "lon": 27.3899993896,
        "tz": ""
    },
    "Santo domingo": {
        "icao": "SVSO",
        "iata": "",
        "name": "mayor buenaventura vivas international airport",
        "city": "Santo domingo",
        "state": "",
        "country": "",
        "elevation": 0,
        "lat": 7.5653800964,
        "lon": -72.0351028442,
        "tz": ""
    },
    "Gaborone": {
        "icao": "FBSK",
        "iata": "",
        "name": "sir seretse khama international airport",
        "city": "Gaborone",
        "state": "",
        "country": "",
        "elevation": 0,
        "lat": -24.5552005768,
        "lon": 25.9181995392,
        "tz": ""
    },
    "Seoul": {
        "icao": "RKSS",
        "iata": "",
        "name": "gimpo international airport",
        "city": "Seoul",
        "state": "",
        "country": "",
        "elevation": 0,
        "lat": 37.5583000183,
        "lon": 126.791000366,
        "tz": ""
    },
    "Maseru": {
        "icao": "FXMU",
        "iata": "",
        "name": "mejametalana airbase",
        "city": "Maseru",
        "state": "",
        "country": "",
        "elevation": 0,
        "lat": -29.3041000366,
        "lon": 27.5034999847,
        "tz": ""
    },
    "Kuwait city": {
        "icao": "OKBK",
        "iata": "",
        "name": "kuwait international airport",
        "city": "Kuwait city",
        "state": "",
        "country": "",
        "elevation": 0,
        "lat": 29.226600647,
        "lon": 47.9688987732,
        "tz": ""
    },
    "Hanoi": {
        "icao": "VVNB",
        "iata": "",
        "name": "noi bai international airport",
        "city": "Hanoi",
        "state": "",
        "country": "",
        "elevation": 0,
        "lat": 21.221200943,
        "lon": 105.8069992065,
        "tz": ""
    },
    "Plymouth": {
        "icao": "46IN",
        "iata": "",
        "name": "ames field",
        "city": "Plymouth",
        "state": "",
        "country": "",
        "elevation": 0,
        "lat": 41.3811988831,
        "lon": -86.2228012085,
        "tz": ""
    },
    "Managua": {
        "icao": "MUMG",
        "iata": "",
        "name": "managua airport",
        "city": "Managua",
        "state": "",
        "country": "",
        "elevation": 0,
        "lat": 22.9699001312,
        "lon": -82.2748031616,
        "tz": ""
    },
    "Hargeisa": {
        "icao": "HCMH",
        "iata": "",
        "name": "egal international airport",
        "city": "Hargeisa",
        "state": "",
        "country": "",
        "elevation": 0,
        "lat": 9.5181703568,
        "lon": 44.0887985229,
        "tz": ""
    },
    "Brazzaville": {
        "icao": "FCBB",
        "iata": "",
        "name": "maya-maya airport",
        "city": "Brazzaville",
        "state": "",
        "country": "",
        "elevation": 0,
        "lat": -4.2516999245,
        "lon": 15.2530002594,
        "tz": ""
    },
    "Dodoma": {
        "icao": "HTDO",
        "iata": "",
        "name": "dodoma airport",
        "city": "Dodoma",
        "state": "",
        "country": "",
        "elevation": 0,
        "lat": -6.170440197,
        "lon": 35.7526016235,
        "tz": ""
    },
    "Pago pago": {
        "icao": "NSTU",
        "iata": "",
        "name": "pago pago international airport",
        "city": "Pago pago",
        "state": "",
        "country": "",
        "elevation": 0,
        "lat": -14.3310003281,
        "lon": -170.710006714,
        "tz": ""
    },
    "Wellington": {
        "icao": "KEGT",
        "iata": "",
        "name": "wellington municipal airport",
        "city": "Wellington",
        "state": "",
        "country": "",
        "elevation": 0,
        "lat": 37.323600769,
        "lon": -97.3882980347,
        "tz": ""
    },
    "Brussels": {
        "icao": "CPD4",
        "iata": "",
        "name": "brussels (armstrong field) airport",
        "city": "Brussels",
        "state": "",
        "country": "",
        "elevation": 0,
        "lat": 43.75,
        "lon": -81.2332992554,
        "tz": ""
    },
    "Bissau": {
        "icao": "GGOV",
        "iata": "",
        "name": "osvaldo vieira international airport",
        "city": "Bissau",
        "state": "",
        "country": "",
        "elevation": 0,
        "lat": 11.8948001862,
        "lon": -15.6536998749,
        "tz": ""
    },
    "Podgorica": {
        "icao": "LYPG",
        "iata": "",
        "name": "podgorica airport",
        "city": "Podgorica",
        "state": "",
        "country": "",
        "elevation": 0,
        "lat": 42.3594017029,
        "lon": 19.2518997192,
        "tz": ""
    },
    "Libreville": {
        "icao": "FOOL",
        "iata": "",
        "name": "leon m ba airport",
        "city": "Libreville",
        "state": "",
        "country": "",
        "elevation": 0,
        "lat": 0.4586000144,
        "lon": 9.4122800827,
        "tz": ""
    },
    "Stockholm": {
        "icao": "WI75",
        "iata": "",
        "name": "bogus creek airport",
        "city": "Stockholm",
        "state": "",
        "country": "",
        "elevation": 0,
        "lat": 44.4989013672,
        "lon": -92.2031021118,
        "tz": ""
    },
    "Beijing": {
        "icao": "ZBNY",
        "iata": "",
        "name": "beijing nanyuan airport",
        "city": "Beijing",
        "state": "",
        "country": "",
        "elevation": 0,
        "lat": 39.7827987671,
        "lon": 116.3880004883,
        "tz": ""
    },
    "Philipsburg": {
        "icao": "KU05",
        "iata": "",
        "name": "riddick field",
        "city": "Philipsburg",
        "state": "",
        "country": "",
        "elevation": 0,
        "lat": 46.3194007874,
        "lon": -113.3050003052,
        "tz": ""
    },
    "Brasilia": {
        "icao": "SSGP",
        "iata": "",
        "name": "piquet airport",
        "city": "Brasilia",
        "state": "",
        "country": "",
        "elevation": 0,
        "lat": -15.8538894653,
        "lon": -47.806388855,
        "tz": ""
    },
    "Amsterdam": {
        "icao": "NY58",
        "iata": "",
        "name": "snow field",
        "city": "Amsterdam",
        "state": "",
        "country": "",
        "elevation": 0,
        "lat": 42.9566993713,
        "lon": -74.0814971924,
        "tz": ""
    },
    "Charlotte amalie": {
        "icao": "TIST",
        "iata": "",
        "name": "cyril e. king airport",
        "city": "Charlotte amalie",
        "state": "",
        "country": "",
        "elevation": 0,
        "lat": 18.3372993469,
        "lon": -64.9733963013,
        "tz": ""
    },
    "Tiraspol": {
        "icao": "LUTR",
        "iata": "",
        "name": "tiraspol airport",
        "city": "Tiraspol",
        "state": "",
        "country": "",
        "elevation": 0,
        "lat": 46.8680992126,
        "lon": 29.5905990601,
        "tz": ""
    },
    "Kingstown": {
        "icao": "TVSV",
        "iata": "",
        "name": "e. t. joshua airport",
        "city": "Kingstown",
        "state": "",
        "country": "",
        "elevation": 0,
        "lat": 13.1443004608,
        "lon": -61.210899353,
        "tz": ""
    },
    "Kathmandu": {
        "icao": "VNKT",
        "iata": "",
        "name": "tribhuvan international airport",
        "city": "Kathmandu",
        "state": "",
        "country": "",
        "elevation": 0,
        "lat": 27.6965999603,
        "lon": 85.3591003418,
        "tz": ""
    },
    "Moroni": {
        "icao": "FMCN",
        "iata": "",
        "name": "iconi airport",
        "city": "Moroni",
        "state": "",
        "country": "",
        "elevation": 0,
        "lat": -11.7108001709,
        "lon": 43.2439002991,
        "tz": ""
    },
    "Lisbon": {
        "icao": "K6L3",
        "iata": "",
        "name": "lisbon municipal airport",
        "city": "Lisbon",
        "state": "",
        "country": "",
        "elevation": 0,
        "lat": 46.44660187,
        "lon": -97.72730255,
        "tz": ""
    },
    "Addis ababa": {
        "icao": "HAAL",
        "iata": "",
        "name": "lideta army airport",
        "city": "Addis ababa",
        "state": "",
        "country": "",
        "elevation": 0,
        "lat": 9.0036802292,
        "lon": 38.7260017395,
        "tz": ""
    },
    "Cockburn town": {
        "icao": "MBGT",
        "iata": "",
        "name": "jags mccartney international airport",
        "city": "Cockburn town",
        "state": "",
        "country": "",
        "elevation": 0,
        "lat": 21.4444999695,
        "lon": -71.1423034668,
        "tz": ""
    },
    "Apia": {
        "icao": "NSFA",
        "iata": "",
        "name": "faleolo international airport",
        "city": "Apia",
        "state": "",
        "country": "",
        "elevation": 0,
        "lat": -13.8299999237,
        "lon": -172.0079956055,
        "tz": ""
    },
    "Nassau": {
        "icao": "MYPI",
        "iata": "",
        "name": "nassau paradise island airport",
        "city": "Nassau",
        "state": "",
        "country": "",
        "elevation": 0,
        "lat": 25.0830001831,
        "lon": -77.3000030518,
        "tz": ""
    },
    "Manila": {
        "icao": "KMXA",
        "iata": "",
        "name": "manila municipal airport",
        "city": "Manila",
        "state": "",
        "country": "",
        "elevation": 0,
        "lat": 35.8944015503,
        "lon": -90.1546020508,
        "tz": ""
    },
    "Nicosia": {
        "icao": "LCEN",
        "iata": "",
        "name": "ercan international airport",
        "city": "Nicosia",
        "state": "",
        "country": "",
        "elevation": 0,
        "lat": 35.1547012329,
        "lon": 33.4961013794,
        "tz": ""
    },
    "Honiara": {
        "icao": "AGGH",
        "iata": "",
        "name": "honiara international airport",
        "city": "Honiara",
        "state": "",
        "country": "",
        "elevation": 0,
        "lat": -9.4280004501,
        "lon": 160.0549926758,
        "tz": ""
    },
    "Bandar seri begawan": {
        "icao": "WBSB",
        "iata": "",
        "name": "brunei international airport",
        "city": "Bandar seri begawan",
        "state": "",
        "country": "",
        "elevation": 0,
        "lat": 4.9442000389,
        "lon": 114.9280014038,
        "tz": ""
    },
    "Kuala lumpur": {
        "icao": "WMKK",
        "iata": "",
        "name": "kuala lumpur international airport",
        "city": "Kuala lumpur",
        "state": "",
        "country": "",
        "elevation": 0,
        "lat": 2.745579958,
        "lon": 101.7099990845,
        "tz": ""
    },
    "Monrovia": {
        "icao": "GLMR",
        "iata": "",
        "name": "spriggs payne airport",
        "city": "Monrovia",
        "state": "",
        "country": "",
        "elevation": 0,
        "lat": 6.2890601158,
        "lon": -10.7587003708,
        "tz": ""
    },
    "Jakarta": {
        "icao": "WIHP",
        "iata": "",
        "name": "pondok cabe air base",
        "city": "Jakarta",
        "state": "",
        "country": "",
        "elevation": 0,
        "lat": -6.3369598389,
        "lon": 106.7649993896,
        "tz": ""
    },
    "Buenos aires": {
        "icao": "SABE",
        "iata": "",
        "name": "jorge newbery airpark",
        "city": "Buenos aires",
        "state": "",
        "country": "",
        "elevation": 0,
        "lat": -34.5592,
        "lon": -58.4156,
        "tz": ""
    },
    "Helsinki": {
        "icao": "EFHF",
        "iata": "",
        "name": "helsinki malmi airport",
        "city": "Helsinki",
        "state": "",
        "country": "",
        "elevation": 0,
        "lat": 60.2546005249,
        "lon": 25.0428009033,
        "tz": ""
    },
    "Bridgetown": {
        "icao": "TBPB",
        "iata": "",
        "name": "sir grantley adams international airport",
        "city": "Bridgetown",
        "state": "",
        "country": "",
        "elevation": 0,
        "lat": 13.0746002197,
        "lon": -59.4925003052,
        "tz": ""
    },
    "San juan": {
        "icao": "SANU",
        "iata": "",
        "name": "domingo faustino sarmiento airport",
        "city": "San juan",
        "state": "",
        "country": "",
        "elevation": 0,
        "lat": -31.5715007782,
        "lon": -68.4181976318,
        "tz": ""
    },
    "Baku": {
        "icao": "UBBB",
        "iata": "",
        "name": "heydar aliyev international airport",
        "city": "Baku",
        "state": "",
        "country": "",
        "elevation": 0,
        "lat": 40.4674987793,
        "lon": 50.0466995239,
        "tz": ""
    },
    "Quito": {
        "icao": "SEQM",
        "iata": "",
        "name": "nuevo aeropuerto internacional mariscal sucre",
        "city": "Quito",
        "state": "",
        "country": "",
        "elevation": 0,
        "lat": -0.1291666667,
        "lon": -78.3575,
        "tz": ""
    },
    "Lome": {
        "icao": "DXXX",
        "iata": "",
        "name": "lome-tokoin airport",
        "city": "Lome",
        "state": "",
        "country": "",
        "elevation": 0,
        "lat": 6.1656098366,
        "lon": 1.2545100451,
        "tz": ""
    },
    "Tunis": {
        "icao": "DTTA",
        "iata": "",
        "name": "tunis carthage international airport",
        "city": "Tunis",
        "state": "",
        "country": "",
        "elevation": 0,
        "lat": 36.8510017395,
        "lon": 10.2271995544,
        "tz": ""
    },
    "Conakry": {
        "icao": "GUCY",
        "iata": "",
        "name": "conakry airport",
        "city": "Conakry",
        "state": "",
        "country": "",
        "elevation": 0,
        "lat": 9.57689,
        "lon": -13.612,
        "tz": ""
    },
    "The valley": {
        "icao": "TQPF",
        "iata": "",
        "name": "wallblake airport",
        "city": "The valley",
        "state": "",
        "country": "",
        "elevation": 0,
        "lat": 18.2047996521,
        "lon": -63.0550994873,
        "tz": ""
    },
    "Belfast": {
        "icao": "EGAC",
        "iata": "",
        "name": "george best belfast city airport",
        "city": "Belfast",
        "state": "",
        "country": "",
        "elevation": 0,
        "lat": 54.6180992126,
        "lon": -5.8724999428,
        "tz": ""
    },
    "Noumea": {
        "icao": "NWWW",
        "iata": "",
        "name": "la tontouta international airport",
        "city": "Noumea",
        "state": "",
        "country": "",
        "elevation": 0,
        "lat": -22.0146007538,
        "lon": 166.2129974365,
        "tz": ""
    },
    "Nouakchott": {
        "icao": "GQNN",
        "iata": "",
        "name": "nouakchott international airport",
        "city": "Nouakchott",
        "state": "",
        "country": "",
        "elevation": 0,
        "lat": 18.0981998444,
        "lon": -15.9484996796,
        "tz": ""
    },
    "Kiev": {
        "icao": "UKKK",
        "iata": "",
        "name": "kiev zhuliany international airport",
        "city": "Kiev",
        "state": "",
        "country": "",
        "elevation": 0,
        "lat": 50.4016990662,
        "lon": 30.4496994019,
        "tz": ""
    },
    "Harare": {
        "icao": "FVHA",
        "iata": "",
        "name": "harare international airport",
        "city": "Harare",
        "state": "",
        "country": "",
        "elevation": 0,
        "lat": -17.9318008423,
        "lon": 31.0928001404,
        "tz": ""
    },
    "Ankara": {
        "icao": "LTAE",
        "iata": "",
        "name": "akinci air base",
        "city": "Ankara",
        "state": "",
        "country": "",
        "elevation": 0,
        "lat": 40.0788993835,
        "lon": 32.5656013489,
        "tz": ""
    },
    "Singapore": {
        "icao": "WSAC",
        "iata": "",
        "name": "changi air base",
        "city": "Singapore",
        "state": "",
        "country": "",
        "elevation": 0,
        "lat": 1.3441400528,
        "lon": 104.009002686,
        "tz": ""
    },
    "Guatemala city": {
        "icao": "MGGT",
        "iata": "",
        "name": "la aurora airport",
        "city": "Guatemala city",
        "state": "",
        "country": "",
        "elevation": 0,
        "lat": 14.5832996368,
        "lon": -90.5274963379,
        "tz": ""
    },
    "Stanley": {
        "icao": "CCW4",
        "iata": "",
        "name": "stanley airport",
        "city": "Stanley",
        "state": "",
        "country": "",
        "elevation": 0,
        "lat": 45.1006011963,
        "lon": -63.9206008911,
        "tz": ""
    },
    "Antananarivo": {
        "icao": "FMMI",
        "iata": "",
        "name": "ivato airport",
        "city": "Antananarivo",
        "state": "",
        "country": "",
        "elevation": 0,
        "lat": -18.7968997955,
        "lon": 47.4788017273,
        "tz": ""
    },
    "Prague": {
        "icao": "LKPR",
        "iata": "",
        "name": "ruzyne international airport",
        "city": "Prague",
        "state": "",
        "country": "",
        "elevation": 0,
        "lat": 50.1007995605,
        "lon": 14.2600002289,
        "tz": ""
    },
    "Male": {
        "icao": "VRMM",
        "iata": "",
        "name": "male international airport",
        "city": "Male",
        "state": "",
        "country": "",
        "elevation": 0,
        "lat": 4.1918301582,
        "lon": 73.5290985107,
        "tz": ""
    },
    "Tehran": {
        "icao": "OIII",
        "iata": "",
        "name": "mehrabad international airport",
        "city": "Tehran",
        "state": "",
        "country": "",
        "elevation": 0,
        "lat": 35.689201355,
        "lon": 51.3134002686,
        "tz": ""
    },
    "Mogadishu": {
        "icao": "HCMM",
        "iata": "",
        "name": "aden adde international airport",
        "city": "Mogadishu",
        "state": "",
        "country": "",
        "elevation": 0,
        "lat": 2.0144400597,
        "lon": 45.3046989441,
        "tz": ""
    },
    "Accra": {
        "icao": "DGAA",
        "iata": "",
        "name": "kotoka international airport",
        "city": "Accra",
        "state": "",
        "country": "",
        "elevation": 0,
        "lat": 5.6051898003,
        "lon": -0.1667860001,
        "tz": ""
    },
    "Avarua": {
        "icao": "NCRG",
        "iata": "",
        "name": "rarotonga international airport",
        "city": "Avarua",
        "state": "",
        "country": "",
        "elevation": 0,
        "lat": -21.2026996613,
        "lon": -159.8059997559,
        "tz": ""
    },
    "Gustavia": {
        "icao": "TFFJ",
        "iata": "",
        "name": "gustaf iii airport",
        "city": "Gustavia",
        "state": "",
        "country": "",
        "elevation": 0,
        "lat": 17.9043998718,
        "lon": -62.8436012268,
        "tz": ""
    },
    "Astana": {
        "icao": "UACC",
        "iata": "",
        "name": "astana international airport",
        "city": "Astana",
        "state": "",
        "country": "",
        "elevation": 0,
        "lat": 51.0222015381,
        "lon": 71.4669036865,
        "tz": ""
    },
    "Cairo": {
        "icao": "K70J",
        "iata": "",
        "name": "cairo grady county airport",
        "city": "Cairo",
        "state": "",
        "country": "",
        "elevation": 0,
        "lat": 30.8880004883,
        "lon": -84.1547012329,
        "tz": ""
    },
    "Niamey": {
        "icao": "DRRN",
        "iata": "",
        "name": "diori hamani international airport",
        "city": "Niamey",
        "state": "",
        "country": "",
        "elevation": 0,
        "lat": 13.4814996719,
        "lon": 2.1836099625,
        "tz": ""
    },
    "Tirana": {
        "icao": "LATI",
        "iata": "",
        "name": "tirana international airport mother teresa",
        "city": "Tirana",
        "state": "",
        "country": "",
        "elevation": 0,
        "lat": 41.4146995544,
        "lon": 19.7206001282,
        "tz": ""
    },
    "Nairobi": {
        "icao": "HKRE",
        "iata": "",
        "name": "moi air base",
        "city": "Nairobi",
        "state": "",
        "country": "",
        "elevation": 0,
        "lat": -1.2772699594,
        "lon": 36.8623008728,
        "tz": ""
    },
    "Kabul": {
        "icao": "OAKB",
        "iata": "",
        "name": "kabul international airport",
        "city": "Kabul",
        "state": "",
        "country": "",
        "elevation": 0,
        "lat": 34.5658988953,
        "lon": 69.2123031616,
        "tz": ""
    },
    "Paramaribo": {
        "icao": "SMZO",
        "iata": "",
        "name": "zorg en hoop airport",
        "city": "Paramaribo",
        "state": "",
        "country": "",
        "elevation": 0,
        "lat": 5.8110799789,
        "lon": -55.190700531,
        "tz": ""
    },
    "Nuuk": {
        "icao": "BGGH",
        "iata": "",
        "name": "godthaab / nuuk airport",
        "city": "Nuuk",
        "state": "",
        "country": "",
        "elevation": 0,
        "lat": 64.19090271,
        "lon": -51.6781005859,
        "tz": ""
    },
    "Islamabad": {
        "icao": "OPRN",
        "iata": "",
        "name": "benazir bhutto international airport",
        "city": "Islamabad",
        "state": "",
        "country": "",
        "elevation": 0,
        "lat": 33.6166992188,
        "lon": 73.0991973877,
        "tz": ""
    },
    "Dushanbe": {
        "icao": "UTDD",
        "iata": "",
        "name": "dushanbe airport",
        "city": "Dushanbe",
        "state": "",
        "country": "",
        "elevation": 0,
        "lat": 38.5433006287,
        "lon": 68.8249969482,
        "tz": ""
    },
    "Luxembourg": {
        "icao": "ELLX",
        "iata": "",
        "name": "luxembourg-findel international airport",
        "city": "Luxembourg",
        "state": "",
        "country": "",
        "elevation": 0,
        "lat": 49.6265983582,
        "lon": 6.211520195,
        "tz": ""
    },
    "Oranjestad": {
        "icao": "TNCA",
        "iata": "",
        "name": "queen beatrix international airport",
        "city": "Oranjestad",
        "state": "",
        "country": "",
        "elevation": 0,
        "lat": 12.5013999939,
        "lon": -70.0151977539,
        "tz": ""
    },
    "Castries": {
        "icao": "TLPC",
        "iata": "",
        "name": "george f. l. charles airport",
        "city": "Castries",
        "state": "",
        "country": "",
        "elevation": 0,
        "lat": 14.0202,
        "lon": -60.992901,
        "tz": ""
    },
    "Willemstad": {
        "icao": "TNCC",
        "iata": "",
        "name": "hato international airport",
        "city": "Willemstad",
        "state": "",
        "country": "",
        "elevation": 0,
        "lat": 12.1888999939,
        "lon": -68.9598007202,
        "tz": ""
    },
    "Bangkok": {
        "icao": "VTBD",
        "iata": "",
        "name": "don mueang international airport",
        "city": "Bangkok",
        "state": "",
        "country": "",
        "elevation": 0,
        "lat": 13.9125995636,
        "lon": 100.6070022583,
        "tz": ""
    },
    "Port louis": {
        "icao": "FIMP",
        "iata": "",
        "name": "sir seewoosagur ramgoolam international airport",
        "city": "Port louis",
        "state": "",
        "country": "",
        "elevation": 0,
        "lat": -20.4302005768,
        "lon": 57.6836013794,
        "tz": ""
    },
    "Tbilisi": {
        "icao": "UGTB",
        "iata": "",
        "name": "tbilisi international airport",
        "city": "Tbilisi",
        "state": "",
        "country": "",
        "elevation": 0,
        "lat": 41.6692008972,
        "lon": 44.95470047,
        "tz": ""
    },
    "Tegucigalpa": {
        "icao": "MHTG",
        "iata": "",
        "name": "toncontin international airport",
        "city": "Tegucigalpa",
        "state": "",
        "country": "",
        "elevation": 0,
        "lat": 14.0608997345,
        "lon": -87.2172012329,
        "tz": ""
    },
    "Sao tome": {
        "icao": "FPST",
        "iata": "",
        "name": "sao tome international airport",
        "city": "Sao tome",
        "state": "",
        "country": "",
        "elevation": 0,
        "lat": 0.3781749904,
        "lon": 6.7121500969,
        "tz": ""
    },
    "Muscat": {
        "icao": "OOMS",
        "iata": "",
        "name": "muscat international airport",
        "city": "Muscat",
        "state": "",
        "country": "",
        "elevation": 0,
        "lat": 23.5932998657,
        "lon": 58.2844009399,
        "tz": ""
    },
    "Canberra": {
        "icao": "YSCB",
        "iata": "",
        "name": "canberra international airport",
        "city": "Canberra",
        "state": "",
        "country": "",
        "elevation": 0,
        "lat": -35.3069000244,
        "lon": 149.1950073242,
        "tz": ""
    },
    "San salvador": {
        "icao": "MSLG",
        "iata": "",
        "name": "la gloria airport",
        "city": "San salvador",
        "state": "",
        "country": "",
        "elevation": 0,
        "lat": 13.7147397995,
        "lon": -89.1913452148,
        "tz": ""
    },
    "Oslo": {
        "icao": "ENGM",
        "iata": "",
        "name": "oslo gardermoen airport",
        "city": "Oslo",
        "state": "",
        "country": "",
        "elevation": 0,
        "lat": 60.193901062,
        "lon": 11.100399971,
        "tz": ""
    },
    "Skopje": {
        "icao": "LWSK",
        "iata": "",
        "name": "skopje alexander the great airport",
        "city": "Skopje",
        "state": "",
        "country": "",
        "elevation": 0,
        "lat": 41.9616012573,
        "lon": 21.6214008331,
        "tz": ""
    },
    "Sofia": {
        "icao": "LBSF",
        "iata": "",
        "name": "sofia airport",
        "city": "Sofia",
        "state": "",
        "country": "",
        "elevation": 0,
        "lat": 42.6966934204,
        "lon": 23.4114360809,
        "tz": ""
    },
    "Baghdad": {
        "icao": "ORBI",
        "iata": "",
        "name": "baghdad international airport",
        "city": "Baghdad",
        "state": "",
        "country": "",
        "elevation": 0,
        "lat": 33.2625007629,
        "lon": 44.2346000671,
        "tz": ""
    },
    "Kinshasa": {
        "icao": "FZAA",
        "iata": "",
        "name": "ndjili international airport",
        "city": "Kinshasa",
        "state": "",
        "country": "",
        "elevation": 0,
        "lat": -4.3857498169,
        "lon": 15.4446001053,
        "tz": ""
    },
    "Bucharest": {
        "icao": "LROP",
        "iata": "",
        "name": "henri coanda international airport",
        "city": "Bucharest",
        "state": "",
        "country": "",
        "elevation": 0,
        "lat": 44.5722007751,
        "lon": 26.1021995544,
        "tz": ""
    },
    "Dili": {
        "icao": "WPDL",
        "iata": "",
        "name": "presidente nicolau lobato international airport",
        "city": "Dili",
        "state": "",
        "country": "",
        "elevation": 0,
        "lat": -8.5464000702,
        "lon": 125.526000977,
        "tz": ""
    },
    "Port vila": {
        "icao": "NVVV",
        "iata": "",
        "name": "port vila bauerfield airport",
        "city": "Port vila",
        "state": "",
        "country": "",
        "elevation": 0,
        "lat": -17.699300766,
        "lon": 168.3200073242,
        "tz": ""
    },
    "Bujumbura": {
        "icao": "HBBA",
        "iata": "",
        "name": "bujumbura international airport",
        "city": "Bujumbura",
        "state": "",
        "country": "",
        "elevation": 0,
        "lat": -3.3240199089,
        "lon": 29.3185005188,
        "tz": ""
    },
    "Doha": {
        "icao": "OTBD",
        "iata": "",
        "name": "doha international airport",
        "city": "Doha",
        "state": "",
        "country": "",
        "elevation": 0,
        "lat": 25.261100769,
        "lon": 51.5651016235,
        "tz": ""
    },
    "Riyadh": {
        "icao": "OERK",
        "iata": "",
        "name": "king khaled international airport",
        "city": "Riyadh",
        "state": "",
        "country": "",
        "elevation": 0,
        "lat": 24.9575996399,
        "lon": 46.6987991333,
        "tz": ""
    },
    "Tallinn": {
        "icao": "EETN",
        "iata": "",
        "name": "tallinn airport",
        "city": "Tallinn",
        "state": "",
        "country": "",
        "elevation": 0,
        "lat": 59.4132995605,
        "lon": 24.8327999115,
        "tz": ""
    },
    "Dakar": {
        "icao": "GOOY",
        "iata": "",
        "name": "leopold sedar senghor international airport",
        "city": "Dakar",
        "state": "",
        "country": "",
        "elevation": 0,
        "lat": 14.7397003174,
        "lon": -17.4902000427,
        "tz": ""
    },
    "Marigot": {
        "icao": "TDPD",
        "iata": "",
        "name": "melville hall airport",
        "city": "Marigot",
        "state": "",
        "country": "",
        "elevation": 0,
        "lat": 15.5469999313,
        "lon": -61.2999992371,
        "tz": ""
    },
    "Ashgabat": {
        "icao": "UTAA",
        "iata": "",
        "name": "ashgabat airport",
        "city": "Ashgabat",
        "state": "",
        "country": "",
        "elevation": 0,
        "lat": 37.9868011475,
        "lon": 58.361000061,
        "tz": ""
    },
    "Asmara": {
        "icao": "HHAS",
        "iata": "",
        "name": "asmara international airport",
        "city": "Asmara",
        "state": "",
        "country": "",
        "elevation": 0,
        "lat": 15.2918996811,
        "lon": 38.9107017517,
        "tz": ""
    },
    "Ljubljana": {
        "icao": "LJLJ",
        "iata": "",
        "name": "ljubljana joze pucnik airport",
        "city": "Ljubljana",
        "state": "",
        "country": "",
        "elevation": 0,
        "lat": 46.2237014771,
        "lon": 14.4575996399,
        "tz": ""
    },
    "Maputo": {
        "icao": "FQMA",
        "iata": "",
        "name": "maputo airport",
        "city": "Maputo",
        "state": "",
        "country": "",
        "elevation": 0,
        "lat": -25.9207992554,
        "lon": 32.5726013184,
        "tz": ""
    },
    "Bratislava": {
        "icao": "LZIB",
        "iata": "",
        "name": "m. r. stefanik airport",
        "city": "Bratislava",
        "state": "",
        "country": "",
        "elevation": 0,
        "lat": 48.1702003479,
        "lon": 17.2126998901,
        "tz": ""
    },
    "Windhoek": {
        "icao": "FYWE",
        "iata": "",
        "name": "eros airport",
        "city": "Windhoek",
        "state": "",
        "country": "",
        "elevation": 0,
        "lat": -22.6121997833,
        "lon": 17.0804004669,
        "tz": ""
    },
    "Gibraltar": {
        "icao": "LXGB",
        "iata": "",
        "name": "gibraltar airport",
        "city": "Gibraltar",
        "state": "",
        "country": "",
        "elevation": 0,
        "lat": 36.1511993408,
        "lon": -5.3496599197,
        "tz": ""
    },
    "N'djamena": {
        "icao": "FTTJ",
        "iata": "",
        "name": "n'djamena international airport",
        "city": "N'djamena",
        "state": "",
        "country": "",
        "elevation": 0,
        "lat": 12.1337003708,
        "lon": 15.0340003967,
        "tz": ""
    },
    "Tashkent": {
        "icao": "UTTP",
        "iata": "",
        "name": "tashkent east airport",
        "city": "Tashkent",
        "state": "",
        "country": "",
        "elevation": 0,
        "lat": 41.3126983643,
        "lon": 69.3914031982,
        "tz": ""
    },
    "Tarawa": {
        "icao": "NGTA",
        "iata": "",
        "name": "bonriki international airport",
        "city": "Tarawa",
        "state": "",
        "country": "",
        "elevation": 0,
        "lat": 1.3816399574,
        "lon": 173.1470031738,
        "tz": ""
    },
    "El aaiun": {
        "icao": "GMML",
        "iata": "",
        "name": "hassan i airport",
        "city": "El aaiun",
        "state": "",
        "country": "",
        "elevation": 0,
        "lat": 27.1516990662,
        "lon": -13.2192001343,
        "tz": ""
    },
    "Yaounde": {
        "icao": "FKYS",
        "iata": "",
        "name": "yaounde nsimalen international airport",
        "city": "Yaounde",
        "state": "",
        "country": "",
        "elevation": 0,
        "lat": 3.7225599289,
        "lon": 11.5532999039,
        "tz": ""
    },
    "Sarajevo": {
        "icao": "LQSA",
        "iata": "",
        "name": "sarajevo international airport",
        "city": "Sarajevo",
        "state": "",
        "country": "",
        "elevation": 0,
        "lat": 43.8246002197,
        "lon": 18.3314990997,
        "tz": ""
    },
    "Rabat": {
        "icao": "GMME",
        "iata": "",
        "name": "rabat-sale airport",
        "city": "Rabat",
        "state": "",
        "country": "",
        "elevation": 0,
        "lat": 34.0514984131,
        "lon": -6.7515201569,
        "tz": ""
    },
    "Bangui": {
        "icao": "FEFF",
        "iata": "",
        "name": "bangui m'poko international airport",
        "city": "Bangui",
        "state": "",
        "country": "",
        "elevation": 0,
        "lat": 4.3984799385,
        "lon": 18.5188007355,
        "tz": ""
    },
    "Budapest": {
        "icao": "LHHH",
        "iata": "",
        "name": "harmashatarhegy airport",
        "city": "Budapest",
        "state": "",
        "country": "",
        "elevation": 0,
        "lat": 47.5503005981,
        "lon": 18.9787006378,
        "tz": ""
    },
    "Reykjavik": {
        "icao": "BIKF",
        "iata": "",
        "name": "keflavik international airport",
        "city": "Reykjavik",
        "state": "",
        "country": "",
        "elevation": 0,
        "lat": 63.9850006104,
        "lon": -22.6056003571,
        "tz": ""
    },
    "Chisinau": {
        "icao": "LUKK",
        "iata": "",
        "name": "chisinau international airport",
        "city": "Chisinau",
        "state": "",
        "country": "",
        "elevation": 0,
        "lat": 46.9277000427,
        "lon": 28.9309997559,
        "tz": ""
    },
    "St pierre": {
        "icao": "FMEP",
        "iata": "",
        "name": "pierrefonds airport",
        "city": "St pierre",
        "state": "",
        "country": "",
        "elevation": 0,
        "lat": -21.3208999634,
        "lon": 55.4249992371,
        "tz": ""
    },
    "Vientiane": {
        "icao": "VLVT",
        "iata": "",
        "name": "wattay international airport",
        "city": "Vientiane",
        "state": "",
        "country": "",
        "elevation": 0,
        "lat": 17.9883003235,
        "lon": 102.56300354,
        "tz": ""
    },
    "Lilongwe": {
        "icao": "FWLE",
        "iata": "",
        "name": "lilongwe airport",
        "city": "Lilongwe",
        "state": "",
        "country": "",
        "elevation": 0,
        "lat": -13.9659996033,
        "lon": 33.7018013,
        "tz": ""
    },
    "Damascus": {
        "icao": "OSDI",
        "iata": "",
        "name": "damascus international airport",
        "city": "Damascus",
        "state": "",
        "country": "",
        "elevation": 0,
        "lat": 33.4114990234,
        "lon": 36.5155982971,
        "tz": ""
    },
    "St. john's": {
        "icao": "CYYT",
        "iata": "",
        "name": "st. john's international airport",
        "city": "St. john's",
        "state": "",
        "country": "",
        "elevation": 0,
        "lat": 47.618598938,
        "lon": -52.7518997192,
        "tz": ""
    },
    "Copenhagen": {
        "icao": "EKCH",
        "iata": "",
        "name": "copenhagen kastrup airport",
        "city": "Copenhagen",
        "state": "",
        "country": "",
        "elevation": 0,
        "lat": 55.6179008484,
        "lon": 12.6560001373,
        "tz": ""
    },
    "Hagatna": {
        "icao": "PGUM",
        "iata": "",
        "name": "antonio b. won pat international airport",
        "city": "Hagatna",
        "state": "",
        "country": "",
        "elevation": 0,
        "lat": 13.4834003448,
        "lon": 144.796005249,
        "tz": ""
    },
    "Caracas": {
        "icao": "SVCS",
        "iata": "",
        "name": "oscar machado zuluaga airport",
        "city": "Caracas",
        "state": "",
        "country": "",
        "elevation": 0,
        "lat": 10.286110878,
        "lon": -66.8161087036,
        "tz": ""
    },
    "Kigali": {
        "icao": "HRYR",
        "iata": "",
        "name": "kigali international airport",
        "city": "Kigali",
        "state": "",
        "country": "",
        "elevation": 0,
        "lat": -1.9686299563,
        "lon": 30.1394996643,
        "tz": ""
    },
    "Dhaka": {
        "icao": "VGTJ",
        "iata": "",
        "name": "tejgaon airport",
        "city": "Dhaka",
        "state": "",
        "country": "",
        "elevation": 0,
        "lat": 23.778799057,
        "lon": 90.3826980591,
        "tz": ""
    },
    "Edinburgh": {
        "icao": "EGPH",
        "iata": "",
        "name": "edinburgh airport",
        "city": "Edinburgh",
        "state": "",
        "country": "",
        "elevation": 0,
        "lat": 55.9500007629,
        "lon": -3.3724999428,
        "tz": ""
    },
    "Malabo": {
        "icao": "FGSL",
        "iata": "",
        "name": "malabo airport",
        "city": "Malabo",
        "state": "",
        "country": "",
        "elevation": 0,
        "lat": 3.7552700043,
        "lon": 8.7087202072,
        "tz": ""
    },
    "Funafuti": {
        "icao": "NGFU",
        "iata": "",
        "name": "funafuti international airport",
        "city": "Funafuti",
        "state": "",
        "country": "",
        "elevation": 0,
        "lat": -8.525,
        "lon": 179.195999,
        "tz": ""
    },
    "Manama": {
        "icao": "OBBI",
        "iata": "",
        "name": "bahrain international airport",
        "city": "Manama",
        "state": "",
        "country": "",
        "elevation": 0,
        "lat": 26.2707996368,
        "lon": 50.6335983276,
        "tz": ""
    },
    "Port-au-prince": {
        "icao": "MTPP",
        "iata": "",
        "name": "toussaint louverture international airport",
        "city": "Port-au-prince",
        "state": "",
        "country": "",
        "elevation": 0,
        "lat": 18.5799999237,
        "lon": -72.2925033569,
        "tz": ""
    },
    "Yamoussoukro": {
        "icao": "DIYO",
        "iata": "",
        "name": "yamoussoukro airport",
        "city": "Yamoussoukro",
        "state": "",
        "country": "",
        "elevation": 0,
        "lat": 6.9031701088,
        "lon": -5.3655800819,
        "tz": ""
    },
    "Juba": {
        "icao": "HSSJ",
        "iata": "",
        "name": "juba airport",
        "city": "Juba",
        "state": "",
        "country": "",
        "elevation": 0,
        "lat": 4.872010231,
        "lon": 31.6011009216,
        "tz": ""
    },
    "Roseau": {
        "icao": "KROX",
        "iata": "",
        "name": "roseau municipal rudy billberg field",
        "city": "Roseau",
        "state": "",
        "country": "",
        "elevation": 0,
        "lat": 48.85599899,
        "lon": -95.6969986,
        "tz": ""
    },
    "Bogota": {
        "icao": "SKBO",
        "iata": "",
        "name": "el dorado international airport",
        "city": "Bogota",
        "state": "",
        "country": "",
        "elevation": 0,
        "lat": 4.70159,
        "lon": -74.1469,
        "tz": ""
    },
    "Kampala": {
        "icao": "HUEN",
        "iata": "",
        "name": "entebbe international airport",
        "city": "Kampala",
        "state": "",
        "country": "",
        "elevation": 0,
        "lat": 0.0423859991,
        "lon": 32.4435005188,
        "tz": ""
    },
    "Ouagadougou": {
        "icao": "DFFD",
        "iata": "",
        "name": "ouagadougou airport",
        "city": "Ouagadougou",
        "state": "",
        "country": "",
        "elevation": 0,
        "lat": 12.3531999588,
        "lon": -1.5124200583,
        "tz": ""
    },
    "Saint peter port": {
        "icao": "EGJB",
        "iata": "",
        "name": "guernsey airport",
        "city": "Saint peter port",
        "state": "",
        "country": "",
        "elevation": 0,
        "lat": 49.4350013733,
        "lon": -2.6019699574,
        "tz": ""
    },
    "New delhi": {
        "icao": "VIDP",
        "iata": "",
        "name": "indira gandhi international airport",
        "city": "New delhi",
        "state": "",
        "country": "",
        "elevation": 0,
        "lat": 28.5664997101,
        "lon": 77.1031036377,
        "tz": ""
    },
    "Basseterre": {
        "icao": "TKPK",
        "iata": "",
        "name": "robert l. bradshaw international airport",
        "city": "Basseterre",
        "state": "",
        "country": "",
        "elevation": 0,
        "lat": 17.3111991882,
        "lon": -62.7187004089,
        "tz": ""
    },
    "Papeete": {
        "icao": "NTAA",
        "iata": "",
        "name": "faa'a international airport",
        "city": "Papeete",
        "state": "",
        "country": "",
        "elevation": 0,
        "lat": -17.5536994934,
        "lon": -149.606994629,
        "tz": ""
    },
    "Bern": {
        "icao": "LSZB",
        "iata": "",
        "name": "bern belp airport",
        "city": "Bern",
        "state": "",
        "country": "",
        "elevation": 0,
        "lat": 46.914100647,
        "lon": 7.4971499443,
        "tz": ""
    },
    "Abuja": {
        "icao": "DNAA",
        "iata": "",
        "name": "nnamdi azikiwe international airport",
        "city": "Abuja",
        "state": "",
        "country": "",
        "elevation": 0,
        "lat": 9.0067901611,
        "lon": 7.2631697655,
        "tz": ""
    },
    "Port moresby": {
        "icao": "AYPY",
        "iata": "",
        "name": "port moresby jacksons international airport",
        "city": "Port moresby",
        "state": "",
        "country": "",
        "elevation": 0,
        "lat": -9.4433803558,
        "lon": 147.2200012207,
        "tz": ""
    },
    "Banjul": {
        "icao": "GBYD",
        "iata": "",
        "name": "banjul international airport",
        "city": "Banjul",
        "state": "",
        "country": "",
        "elevation": 0,
        "lat": 13.3380002975,
        "lon": -16.6522006989,
        "tz": ""
    },
    "Phnom penh": {
        "icao": "VDPP",
        "iata": "",
        "name": "phnom penh international airport",
        "city": "Phnom penh",
        "state": "",
        "country": "",
        "elevation": 0,
        "lat": 11.5466003418,
        "lon": 104.84400177,
        "tz": ""
    },
    "Alofi": {
        "icao": "NIUE",
        "iata": "",
        "name": "niue international airport",
        "city": "Alofi",
        "state": "",
        "country": "",
        "elevation": 0,
        "lat": -19.0790309906,
        "lon": -169.9255981445,
        "tz": ""
    },
    "Khartoum": {
        "icao": "HSSS",
        "iata": "",
        "name": "khartoum international airport",
        "city": "Khartoum",
        "state": "",
        "country": "",
        "elevation": 0,
        "lat": 15.5895004272,
        "lon": 32.5531997681,
        "tz": ""
    }
}